$GPGSA,A,3,01,02,03,04,05,06,07,08,09,10,11,12,1.2,1.0,0.6*35
$GPGSV,3,1,12,01,45,045,50,02,45,045,50,03,45,045,50,04,45,045,50*7c
$GPGSV,3,2,12,05,45,045,50,06,45,045,50,07,45,045,50,08,45,045,50*77
$GPGSV,3,3,12,09,45,045,50,10,45,045,50,11,45,045,50,12,45,045,50*71
$GPRMC,212132.00,A,5145.5419,N,13.9738,W,1.3,193.7,180718,0.0,E,A*14
$GPVTG,193.7,T,0.0,M,1.3,N,2.5,K*47
$GPGGA,212132.00,5145.5419,N,13.9738,W,12,12,1.0,86.8,M,0.0,M,0.0,0000*5c
$GPGSA,A,3,01,02,03,04,05,06,07,08,09,10,11,12,1.2,1.0,0.6*35
$GPGSV,3,1,12,01,45,045,50,02,45,045,50,03,45,045,50,04,45,045,50*7c
$GPGSV,3,2,12,05,45,045,50,06,45,045,50,07,45,045,50,08,45,045,50*77
$GPGSV,3,3,12,09,45,045,50,10,45,045,50,11,45,045,50,12,45,045,50*71
$GPRMC,212133.00,A,5145.5412,N,13.9744,W,0.4,203.6,180718,0.0,E,A*18
$GPVTG,203.6,T,0.0,M,0.4,N,0.7,K*4a
$GPGGA,212133.00,5145.5412,N,13.9744,W,12,12,1.0,86.9,M,0.0,M,0.0,0000*5c
$GPGSA,A,3,01,02,03,04,05,06,07,08,09,10,11,12,1.2,1.0,0.6*35
$GPGSV,3,1,12,01,45,045,50,02,45,045,50,03,45,045,50,04,45,045,50*7c
$GPGSV,3,2,12,05,45,045,50,06,45,045,50,07,45,045,50,08,45,045,50*77
$GPGSV,3,3,12,09,45,045,50,10,45,045,50,11,45,045,50,12,45,045,50*71
$GPRMC,212134.00,A,5145.5412,N,13.9744,W,0.0,215.5,180718,0.0,E,A*1f
$GPVTG,215.5,T,0.0,M,0.0,N,0.0,K*4d
$GPGGA,212134.00,5145.5412,N,13.9744,W,12,12,1.0,86.8,M,0.0,M,0.0,0000*5a
$GPGSA,A,3,01,02,03,04,05,06,07,08,09,10,11,12,1.2,1.0,0.6*35
$GPGSV,3,1,12,01,45,045,50,02,45,045,50,03,45,045,50,04,45,045,50*7c
$GPGSV,3,2,12,05,45,045,50,06,45,045,50,07,45,045,50,08,45,045,50*77
$GPGSV,3,3,12,09,45,045,50,10,45,045,50,11,45,045,50,12,45,045,50*71
$GPRMC,212135.00,A,5145.5412,N,13.9744,W,0.0,252.8,180718,0.0,E,A*10
$GPVTG,252.8,T,0.0,M,0.0,N,0.0,K*43
$GPGGA,212135.00,5145.5412,N,13.9744,W,12,12,1.0,86.8,M,0.0,M,0.0,0000*5b
$GPGSA,A,3,01,02,03,04,05,06,07,08,09,10,11,12,1.2,1.0,0.6*35
$GPGSV,3,1,12,01,45,045,50,02,45,045,50,03,45,045,50,04,45,045,50*7c
$GPGSV,3,2,12,05,45,045,50,06,45,045,50,07,45,045,50,08,45,045,50*77
$GPGSV,3,3,12,09,45,045,50,10,45,045,50,11,45,045,50,12,45,045,50*71
$GPRMC,212136.00,A,5145.5412,N,13.9744,W,0.0,252.8,180718,0.0,E,A*13
$GPVTG,252.8,T,0.0,M,0.0,N,0.0,K*43
$GPGGA,212136.00,5145.5412,N,13.9744,W,12,12,1.0,86.8,M,0.0,M,0.0,0000*58
$GPGSA,A,3,01,02,03,04,05,06,07,08,09,10,11,12,1.2,1.0,0.6*35
$GPGSV,3,1,12,01,45,045,50,02,45,045,50,03,45,045,50,04,45,045,50*7c
$GPGSV,3,2,12,05,45,045,50,06,45,045,50,07,45,045,50,08,45,045,50*77
$GPGSV,3,3,12,09,45,045,50,10,45,045,50,11,45,045,50,12,45,045,50*71
$GPRMC,212137.00,A,5145.5412,N,13.9744,W,0.0,252.8,180718,0.0,E,A*12
$GPVTG,252.8,T,0.0,M,0.0,N,0.0,K*43
$GPGGA,212137.00,5145.5412,N,13.9744,W,12,12,1.0,86.8,M,0.0,M,0.0,0000*59
$GPGSA,A,3,01,02,03,04,05,06,07,08,09,10,11,12,1.2,1.0,0.6*35
$GPGSV,3,1,12,01,45,045,50,02,45,045,50,03,45,045,50,04,45,045,50*7c
$GPGSV,3,2,12,05,45,045,50,06,45,045,50,07,45,045,50,08,45,045,50*77
$GPGSV,3,3,12,09,45,045,50,10,45,045,50,11,45,045,50,12,45,045,50*71
$GPRMC,212138.00,A,5145.5412,N,13.9744,W,0.0,252.8,180718,0.0,E,A*1d
$GPVTG,252.8,T,0.0,M,0.0,N,0.0,K*43
$GPGGA,212138.00,5145.5412,N,13.9744,W,12,12,1.0,86.8,M,0.0,M,0.0,0000*56
$GPGSA,A,3,01,02,03,04,05,06,07,08,09,10,11,12,1.2,1.0,0.6*35
$GPGSV,3,1,12,01,45,045,50,02,45,045,50,03,45,045,50,04,45,045,50*7c
$GPGSV,3,2,12,05,45,045,50,06,45,045,50,07,45,045,50,08,45,045,50*77
$GPGSV,3,3,12,09,45,045,50,10,45,045,50,11,45,045,50,12,45,045,50*71
$GPRMC,212139.00,A,5145.5412,N,13.9744,W,0.0,252.8,180718,0.0,E,A*1c
$GPVTG,252.8,T,0.0,M,0.0,N,0.0,K*43
$GPGGA,212139.00,5145.5412,N,13.9744,W,12,12,1.0,86.7,M,0.0,M,0.0,0000*58
$GPGSA,A,3,01,02,03,04,05,06,07,08,09,10,11,12,1.2,1.0,0.6*35
$GPGSV,3,1,12,01,45,045,50,02,45,045,50,03,45,045,50,04,45,045,50*7c
$GPGSV,3,2,12,05,45,045,50,06,45,045,50,07,45,045,50,08,45,045,50*77
$GPGSV,3,3,12,09,45,045,50,10,45,045,50,11,45,045,50,12,45,045,50*71
$GPRMC,212140.00,A,5145.5412,N,13.9744,W,0.0,252.8,180718,0.0,E,A*12
$GPVTG,252.8,T,0.0,M,0.0,N,0.0,K*43
$GPGGA,212140.00,5145.5412,N,13.9744,W,12,12,1.0,86.7,M,0.0,M,0.0,0000*56
$GPGSA,A,3,01,02,03,04,05,06,07,08,09,10,11,12,1.2,1.0,0.6*35
$GPGSV,3,1,12,01,45,045,50,02,45,045,50,03,45,045,50,04,45,045,50*7c
$GPGSV,3,2,12,05,45,045,50,06,45,045,50,07,45,045,50,08,45,045,50*77
$GPGSV,3,3,12,09,45,045,50,10,45,045,50,11,45,045,50,12,45,045,50*71
$GPRMC,212141.00,A,5145.5412,N,13.9744,W,0.0,252.8,180718,0.0,E,A*13
$GPVTG,252.8,T,0.0,M,0.0,N,0.0,K*43
$GPGGA,212141.00,5145.5412,N,13.9744,W,12,12,1.0,86.7,M,0.0,M,0.0,0000*57
$GPGSA,A,3,01,02,03,04,05,06,07,08,09,10,11,12,1.2,1.0,0.6*35
$GPGSV,3,1,12,01,45,045,50,02,45,045,50,03,45,045,50,04,45,045,50*7c
$GPGSV,3,2,12,05,45,045,50,06,45,045,50,07,45,045,50,08,45,045,50*77
$GPGSV,3,3,12,09,45,045,50,10,45,045,50,11,45,045,50,12,45,045,50*71
$GPRMC,212141.00,A,5145.5387,N,13.9760,W,0.0,252.8,180718,0.0,E,A*1e
$GPVTG,252.8,T,0.0,M,0.0,N,0.0,K*43
$GPGGA,212141.00,5145.5387,N,13.9760,W,12,12,1.0,86.7,M,0.0,M,0.0,0000*5a
$GPGSA,A,3,01,02,03,04,05,06,07,08,09,10,11,12,1.2,1.0,0.6*35
$GPGSV,3,1,12,01,45,045,50,02,45,045,50,03,45,045,50,04,45,045,50*7c
$GPGSV,3,2,12,05,45,045,50,06,45,045,50,07,45,045,50,08,45,045,50*77
$GPGSV,3,3,12,09,45,045,50,10,45,045,50,11,45,045,50,12,45,045,50*71
$GPRMC,212142.00,A,5145.5387,N,13.9760,W,0.0,252.8,180718,0.0,E,A*1d
$GPVTG,252.8,T,0.0,M,0.0,N,0.0,K*43
$GPGGA,212142.00,5145.5387,N,13.9760,W,12,12,1.0,86.7,M,0.0,M,0.0,0000*59
$GPGSA,A,3,01,02,03,04,05,06,07,08,09,10,11,12,1.2,1.0,0.6*35
$GPGSV,3,1,12,01,45,045,50,02,45,045,50,03,45,045,50,04,45,045,50*7c
$GPGSV,3,2,12,05,45,045,50,06,45,045,50,07,45,045,50,08,45,045,50*77
$GPGSV,3,3,12,09,45,045,50,10,45,045,50,11,45,045,50,12,45,045,50*71
$GPRMC,212143.00,A,5145.5388,N,13.9759,W,0.4,89.6,180718,0.0,E,A*27
$GPVTG,89.6,T,0.0,M,0.4,N,0.7,K*7a
$GPGGA,212143.00,5145.5388,N,13.9759,W,12,12,1.0,86.7,M,0.0,M,0.0,0000*5d
$GPGSA,A,3,01,02,03,04,05,06,07,08,09,10,11,12,1.2,1.0,0.6*35
$GPGSV,3,1,12,01,45,045,50,02,45,045,50,03,45,045,50,04,45,045,50*7c
$GPGSV,3,2,12,05,45,045,50,06,45,045,50,07,45,045,50,08,45,045,50*77
$GPGSV,3,3,12,09,45,045,50,10,45,045,50,11,45,045,50,12,45,045,50*71
$GPRMC,212144.00,A,5145.5388,N,13.9759,W,0.0,88.6,180718,0.0,E,A*25
$GPVTG,88.6,T,0.0,M,0.0,N,0.0,K*78
$GPGGA,212144.00,5145.5388,N,13.9759,W,12,12,1.0,86.7,M,0.0,M,0.0,0000*5a
$GPGSA,A,3,01,02,03,04,05,06,07,08,09,10,11,12,1.2,1.0,0.6*35
$GPGSV,3,1,12,01,45,045,50,02,45,045,50,03,45,045,50,04,45,045,50*7c
$GPGSV,3,2,12,05,45,045,50,06,45,045,50,07,45,045,50,08,45,045,50*77
$GPGSV,3,3,12,09,45,045,50,10,45,045,50,11,45,045,50,12,45,045,50*71
$GPRMC,212145.00,A,5145.5388,N,13.9759,W,0.0,88.6,180718,0.0,E,A*24
$GPVTG,88.6,T,0.0,M,0.0,N,0.0,K*78
$GPGGA,212145.00,5145.5388,N,13.9759,W,12,12,1.0,86.7,M,0.0,M,0.0,0000*5b
$GPGSA,A,3,01,02,03,04,05,06,07,08,09,10,11,12,1.2,1.0,0.6*35
$GPGSV,3,1,12,01,45,045,50,02,45,045,50,03,45,045,50,04,45,045,50*7c
$GPGSV,3,2,12,05,45,045,50,06,45,045,50,07,45,045,50,08,45,045,50*77
$GPGSV,3,3,12,09,45,045,50,10,45,045,50,11,45,045,50,12,45,045,50*71
$GPRMC,212146.00,A,5145.5388,N,13.9759,W,0.0,88.6,180718,0.0,E,A*27
$GPVTG,88.6,T,0.0,M,0.0,N,0.0,K*78
$GPGGA,212146.00,5145.5388,N,13.9759,W,12,12,1.0,86.7,M,0.0,M,0.0,0000*58
$GPGSA,A,3,01,02,03,04,05,06,07,08,09,10,11,12,1.2,1.0,0.6*35
$GPGSV,3,1,12,01,45,045,50,02,45,045,50,03,45,045,50,04,45,045,50*7c
$GPGSV,3,2,12,05,45,045,50,06,45,045,50,07,45,045,50,08,45,045,50*77
$GPGSV,3,3,12,09,45,045,50,10,45,045,50,11,45,045,50,12,45,045,50*71
$GPRMC,212147.00,A,5145.5388,N,13.9759,W,0.0,88.6,180718,0.0,E,A*26
$GPVTG,88.6,T,0.0,M,0.0,N,0.0,K*78
$GPGGA,212147.00,5145.5388,N,13.9759,W,12,12,1.0,86.7,M,0.0,M,0.0,0000*59
$GPGSA,A,3,01,02,03,04,05,06,07,08,09,10,11,12,1.2,1.0,0.6*35
$GPGSV,3,1,12,01,45,045,50,02,45,045,50,03,45,045,50,04,45,045,50*7c
$GPGSV,3,2,12,05,45,045,50,06,45,045,50,07,45,045,50,08,45,045,50*77
$GPGSV,3,3,12,09,45,045,50,10,45,045,50,11,45,045,50,12,45,045,50*71
$GPRMC,212148.00,A,5145.5388,N,13.9759,W,0.0,88.6,180718,0.0,E,A*29
$GPVTG,88.6,T,0.0,M,0.0,N,0.0,K*78
$GPGGA,212148.00,5145.5388,N,13.9759,W,12,12,1.0,86.7,M,0.0,M,0.0,0000*56
$GPGSA,A,3,01,02,03,04,05,06,07,08,09,10,11,12,1.2,1.0,0.6*35
$GPGSV,3,1,12,01,45,045,50,02,45,045,50,03,45,045,50,04,45,045,50*7c
$GPGSV,3,2,12,05,45,045,50,06,45,045,50,07,45,045,50,08,45,045,50*77
$GPGSV,3,3,12,09,45,045,50,10,45,045,50,11,45,045,50,12,45,045,50*71
$GPRMC,212149.00,A,5145.5388,N,13.9759,W,0.0,88.6,180718,0.0,E,A*28
$GPVTG,88.6,T,0.0,M,0.0,N,0.0,K*78
$GPGGA,212149.00,5145.5388,N,13.9759,W,12,12,1.0,86.7,M,0.0,M,0.0,0000*57
$GPGSA,A,3,01,02,03,04,05,06,07,08,09,10,11,12,1.2,1.0,0.6*35
$GPGSV,3,1,12,01,45,045,50,02,45,045,50,03,45,045,50,04,45,045,50*7c
$GPGSV,3,2,12,05,45,045,50,06,45,045,50,07,45,045,50,08,45,045,50*77
$GPGSV,3,3,12,09,45,045,50,10,45,045,50,11,45,045,50,12,45,045,50*71
$GPRMC,212150.00,A,5145.5388,N,13.9759,W,0.0,312.2,180718,0.0,E,A*14
$GPVTG,312.2,T,0.0,M,0.0,N,0.0,K*4c
$GPGGA,212150.00,5145.5388,N,13.9759,W,12,12,1.0,87.2,M,0.0,M,0.0,0000*5b
$GPGSA,A,3,01,02,03,04,05,06,07,08,09,10,11,12,1.2,1.0,0.6*35
$GPGSV,3,1,12,01,45,045,50,02,45,045,50,03,45,045,50,04,45,045,50*7c
$GPGSV,3,2,12,05,45,045,50,06,45,045,50,07,45,045,50,08,45,045,50*77
$GPGSV,3,3,12,09,45,045,50,10,45,045,50,11,45,045,50,12,45,045,50*71
$GPRMC,212151.00,A,5145.5392,N,13.9762,W,0.7,249.6,180718,0.0,E,A*1a
$GPVTG,249.6,T,0.0,M,0.7,N,1.3,K*42
$GPGGA,212151.00,5145.5392,N,13.9762,W,12,12,1.0,87.4,M,0.0,M,0.0,0000*5f
$GPGSA,A,3,01,02,03,04,05,06,07,08,09,10,11,12,1.2,1.0,0.6*35
$GPGSV,3,1,12,01,45,045,50,02,45,045,50,03,45,045,50,04,45,045,50*7c
$GPGSV,3,2,12,05,45,045,50,06,45,045,50,07,45,045,50,08,45,045,50*77
$GPGSV,3,3,12,09,45,045,50,10,45,045,50,11,45,045,50,12,45,045,50*71
$GPRMC,212152.00,A,5145.5389,N,13.9770,W,3.1,247.5,180718,0.0,E,A*18
$GPVTG,247.5,T,0.0,M,3.1,N,5.7,K*4a
$GPGGA,212152.00,5145.5389,N,13.9770,W,12,12,1.0,87.6,M,0.0,M,0.0,0000*57
$GPGSA,A,3,01,02,03,04,05,06,07,08,09,10,11,12,1.2,1.0,0.6*35
$GPGSV,3,1,12,01,45,045,50,02,45,045,50,03,45,045,50,04,45,045,50*7c
$GPGSV,3,2,12,05,45,045,50,06,45,045,50,07,45,045,50,08,45,045,50*77
$GPGSV,3,3,12,09,45,045,50,10,45,045,50,11,45,045,50,12,45,045,50*71
$GPRMC,212153.00,A,5145.5382,N,13.9783,W,4.4,224.3,180718,0.0,E,A*1f
$GPVTG,224.3,T,0.0,M,4.4,N,8.1,K*40
$GPGGA,212153.00,5145.5382,N,13.9783,W,12,12,1.0,87.2,M,0.0,M,0.0,0000*55
$GPGSA,A,3,01,02,03,04,05,06,07,08,09,10,11,12,1.2,1.0,0.6*35
$GPGSV,3,1,12,01,45,045,50,02,45,045,50,03,45,045,50,04,45,045,50*7c
$GPGSV,3,2,12,05,45,045,50,06,45,045,50,07,45,045,50,08,45,045,50*77
$GPGSV,3,3,12,09,45,045,50,10,45,045,50,11,45,045,50,12,45,045,50*71
$GPRMC,212154.00,A,5145.5375,N,13.9798,W,4.4,232.0,180718,0.0,E,A*1e
$GPVTG,232.0,T,0.0,M,4.4,N,8.1,K*44
$GPGGA,212154.00,5145.5375,N,13.9798,W,12,12,1.0,87.3,M,0.0,M,0.0,0000*51
$GPGSA,A,3,01,02,03,04,05,06,07,08,09,10,11,12,1.2,1.0,0.6*35
$GPGSV,3,1,12,01,45,045,50,02,45,045,50,03,45,045,50,04,45,045,50*7c
$GPGSV,3,2,12,05,45,045,50,06,45,045,50,07,45,045,50,08,45,045,50*77
$GPGSV,3,3,12,09,45,045,50,10,45,045,50,11,45,045,50,12,45,045,50*71
$GPRMC,212155.00,A,5145.5366,N,13.9816,W,4.9,232.4,180718,0.0,E,A*1d
$GPVTG,232.4,T,0.0,M,4.9,N,9.0,K*4d
$GPGGA,212155.00,5145.5366,N,13.9816,W,12,12,1.0,87.6,M,0.0,M,0.0,0000*5e
$GPGSA,A,3,01,02,03,04,05,06,07,08,09,10,11,12,1.2,1.0,0.6*35
$GPGSV,3,1,12,01,45,045,50,02,45,045,50,03,45,045,50,04,45,045,50*7c
$GPGSV,3,2,12,05,45,045,50,06,45,045,50,07,45,045,50,08,45,045,50*77
$GPGSV,3,3,12,09,45,045,50,10,45,045,50,11,45,045,50,12,45,045,50*71
$GPRMC,212156.00,A,5145.5356,N,13.9839,W,6.2,233.1,180718,0.0,E,A*1d
$GPVTG,233.1,T,0.0,M,6.2,N,11.5,K*7c
$GPGGA,212156.00,5145.5356,N,13.9839,W,12,12,1.0,87.4,M,0.0,M,0.0,0000*51
$GPGSA,A,3,01,02,03,04,05,06,07,08,09,10,11,12,1.2,1.0,0.6*35
$GPGSV,3,1,12,01,45,045,50,02,45,045,50,03,45,045,50,04,45,045,50*7c
$GPGSV,3,2,12,05,45,045,50,06,45,045,50,07,45,045,50,08,45,045,50*77
$GPGSV,3,3,12,09,45,045,50,10,45,045,50,11,45,045,50,12,45,045,50*71
$GPRMC,212157.00,A,5145.5347,N,13.9865,W,7.1,234.5,180718,0.0,E,A*14
$GPVTG,234.5,T,0.0,M,7.1,N,13.1,K*7b
$GPGGA,212157.00,5145.5347,N,13.9865,W,12,12,1.0,87.2,M,0.0,M,0.0,0000*5f
$GPGSA,A,3,01,02,03,04,05,06,07,08,09,10,11,12,1.2,1.0,0.6*35
$GPGSV,3,1,12,01,45,045,50,02,45,045,50,03,45,045,50,04,45,045,50*7c
$GPGSV,3,2,12,05,45,045,50,06,45,045,50,07,45,045,50,08,45,045,50*77
$GPGSV,3,3,12,09,45,045,50,10,45,045,50,11,45,045,50,12,45,045,50*71
$GPRMC,212158.00,A,5145.5337,N,13.9891,W,7.1,234.1,180718,0.0,E,A*13
$GPVTG,234.1,T,0.0,M,7.1,N,13.1,K*7f
$GPGGA,212158.00,5145.5337,N,13.9891,W,12,12,1.0,87.0,M,0.0,M,0.0,0000*5e
$GPGSA,A,3,01,02,03,04,05,06,07,08,09,10,11,12,1.2,1.0,0.6*35
$GPGSV,3,1,12,01,45,045,50,02,45,045,50,03,45,045,50,04,45,045,50*7c
$GPGSV,3,2,12,05,45,045,50,06,45,045,50,07,45,045,50,08,45,045,50*77
$GPGSV,3,3,12,09,45,045,50,10,45,045,50,11,45,045,50,12,45,045,50*71
$GPRMC,212159.00,A,5145.5327,N,13.9918,W,7.1,236.6,180718,0.0,E,A*16
$GPVTG,236.6,T,0.0,M,7.1,N,13.1,K*7a
$GPGGA,212159.00,5145.5327,N,13.9918,W,12,12,1.0,86.7,M,0.0,M,0.0,0000*58
$GPGSA,A,3,01,02,03,04,05,06,07,08,09,10,11,12,1.2,1.0,0.6*35
$GPGSV,3,1,12,01,45,045,50,02,45,045,50,03,45,045,50,04,45,045,50*7c
$GPGSV,3,2,12,05,45,045,50,06,45,045,50,07,45,045,50,08,45,045,50*77
$GPGSV,3,3,12,09,45,045,50,10,45,045,50,11,45,045,50,12,45,045,50*71
$GPRMC,212200.00,A,5145.5318,N,13.9944,W,6.9,235.5,180718,0.0,E,A*15
$GPVTG,235.5,T,0.0,M,6.9,N,12.7,K*74
$GPGGA,212200.00,5145.5318,N,13.9944,W,12,12,1.0,86.4,M,0.0,M,0.0,0000*51
$GPGSA,A,3,01,02,03,04,05,06,07,08,09,10,11,12,1.2,1.0,0.6*35
$GPGSV,3,1,12,01,45,045,50,02,45,045,50,03,45,045,50,04,45,045,50*7c
$GPGSV,3,2,12,05,45,045,50,06,45,045,50,07,45,045,50,08,45,045,50*77
$GPGSV,3,3,12,09,45,045,50,10,45,045,50,11,45,045,50,12,45,045,50*71
$GPRMC,212201.00,A,5145.5308,N,13.9971,W,6.7,235.9,180718,0.0,E,A*11
$GPVTG,235.9,T,0.0,M,6.7,N,12.5,K*74
$GPGGA,212201.00,5145.5308,N,13.9971,W,12,12,1.0,86.7,M,0.0,M,0.0,0000*54
$GPGSA,A,3,01,02,03,04,05,06,07,08,09,10,11,12,1.2,1.0,0.6*35
$GPGSV,3,1,12,01,45,045,50,02,45,045,50,03,45,045,50,04,45,045,50*7c
$GPGSV,3,2,12,05,45,045,50,06,45,045,50,07,45,045,50,08,45,045,50*77
$GPGSV,3,3,12,09,45,045,50,10,45,045,50,11,45,045,50,12,45,045,50*71
$GPRMC,212202.00,A,5145.5299,N,13.9997,W,7.0,236.6,180718,0.0,E,A*19
$GPVTG,236.6,T,0.0,M,7.0,N,12.9,K*72
$GPGGA,212202.00,5145.5299,N,13.9997,W,12,12,1.0,86.5,M,0.0,M,0.0,0000*54
$GPGSA,A,3,01,02,03,04,05,06,07,08,09,10,11,12,1.2,1.0,0.6*35
$GPGSV,3,1,12,01,45,045,50,02,45,045,50,03,45,045,50,04,45,045,50*7c
$GPGSV,3,2,12,05,45,045,50,06,45,045,50,07,45,045,50,08,45,045,50*77
$GPGSV,3,3,12,09,45,045,50,10,45,045,50,11,45,045,50,12,45,045,50*71
$GPRMC,212203.00,A,5145.5289,N,14.0025,W,7.1,235.9,180718,0.0,E,A*1a
$GPVTG,235.9,T,0.0,M,7.1,N,13.2,K*75
$GPGGA,212203.00,5145.5289,N,14.0025,W,12,12,1.0,86.3,M,0.0,M,0.0,0000*5c
$GPGSA,A,3,01,02,03,04,05,06,07,08,09,10,11,12,1.2,1.0,0.6*35
$GPGSV,3,1,12,01,45,045,50,02,45,045,50,03,45,045,50,04,45,045,50*7c
$GPGSV,3,2,12,05,45,045,50,06,45,045,50,07,45,045,50,08,45,045,50*77
$GPGSV,3,3,12,09,45,045,50,10,45,045,50,11,45,045,50,12,45,045,50*71
$GPRMC,212204.00,A,5145.5278,N,14.0054,W,7.3,235.5,180718,0.0,E,A*1b
$GPVTG,235.5,T,0.0,M,7.3,N,13.4,K*7d
$GPGGA,212204.00,5145.5278,N,14.0054,W,12,12,1.0,86.2,M,0.0,M,0.0,0000*52
$GPGSA,A,3,01,02,03,04,05,06,07,08,09,10,11,12,1.2,1.0,0.6*35
$GPGSV,3,1,12,01,45,045,50,02,45,045,50,03,45,045,50,04,45,045,50*7c
$GPGSV,3,2,12,05,45,045,50,06,45,045,50,07,45,045,50,08,45,045,50*77
$GPGSV,3,3,12,09,45,045,50,10,45,045,50,11,45,045,50,12,45,045,50*71
$GPRMC,212205.00,A,5145.5266,N,14.0083,W,7.3,234.8,180718,0.0,E,A*13
$GPVTG,234.8,T,0.0,M,7.3,N,13.4,K*71
$GPGGA,212205.00,5145.5266,N,14.0083,W,12,12,1.0,86.5,M,0.0,M,0.0,0000*51
$GPGSA,A,3,01,02,03,04,05,06,07,08,09,10,11,12,1.2,1.0,0.6*35
$GPGSV,3,1,12,01,45,045,50,02,45,045,50,03,45,045,50,04,45,045,50*7c
$GPGSV,3,2,12,05,45,045,50,06,45,045,50,07,45,045,50,08,45,045,50*77
$GPGSV,3,3,12,09,45,045,50,10,45,045,50,11,45,045,50,12,45,045,50*71
$GPRMC,212206.00,A,5145.5254,N,14.0112,W,7.6,235.2,180718,0.0,E,A*16
$GPVTG,235.2,T,0.0,M,7.6,N,14.1,K*7d
$GPGGA,212206.00,5145.5254,N,14.0112,W,12,12,1.0,86.2,M,0.0,M,0.0,0000*5d
$GPGSA,A,3,01,02,03,04,05,06,07,08,09,10,11,12,1.2,1.0,0.6*35
$GPGSV,3,1,12,01,45,045,50,02,45,045,50,03,45,045,50,04,45,045,50*7c
$GPGSV,3,2,12,05,45,045,50,06,45,045,50,07,45,045,50,08,45,045,50*77
$GPGSV,3,3,12,09,45,045,50,10,45,045,50,11,45,045,50,12,45,045,50*71
$GPRMC,212207.00,A,5145.5241,N,14.0142,W,7.8,235.5,180718,0.0,E,A*1f
$GPVTG,235.5,T,0.0,M,7.8,N,14.4,K*71
$GPGGA,212207.00,5145.5241,N,14.0142,W,12,12,1.0,86.1,M,0.0,M,0.0,0000*5e
$GPGSA,A,3,01,02,03,04,05,06,07,08,09,10,11,12,1.2,1.0,0.6*35
$GPGSV,3,1,12,01,45,045,50,02,45,045,50,03,45,045,50,04,45,045,50*7c
$GPGSV,3,2,12,05,45,045,50,06,45,045,50,07,45,045,50,08,45,045,50*77
$GPGSV,3,3,12,09,45,045,50,10,45,045,50,11,45,045,50,12,45,045,50*71
$GPRMC,212208.00,A,5145.5227,N,14.0174,W,8.2,236.2,180718,0.0,E,A*14
$GPVTG,236.2,T,0.0,M,8.2,N,15.2,K*77
$GPGGA,212208.00,5145.5227,N,14.0174,W,12,12,1.0,85.9,M,0.0,M,0.0,0000*5f
$GPGSA,A,3,01,02,03,04,05,06,07,08,09,10,11,12,1.2,1.0,0.6*35
$GPGSV,3,1,12,01,45,045,50,02,45,045,50,03,45,045,50,04,45,045,50*7c
$GPGSV,3,2,12,05,45,045,50,06,45,045,50,07,45,045,50,08,45,045,50*77
$GPGSV,3,3,12,09,45,045,50,10,45,045,50,11,45,045,50,12,45,045,50*71
$GPRMC,212209.00,A,5145.5214,N,14.0205,W,8.2,237.0,180718,0.0,E,A*13
$GPVTG,237.0,T,0.0,M,8.2,N,15.2,K*74
$GPGGA,212209.00,5145.5214,N,14.0205,W,12,12,1.0,85.5,M,0.0,M,0.0,0000*57
$GPGSA,A,3,01,02,03,04,05,06,07,08,09,10,11,12,1.2,1.0,0.6*35
$GPGSV,3,1,12,01,45,045,50,02,45,045,50,03,45,045,50,04,45,045,50*7c
$GPGSV,3,2,12,05,45,045,50,06,45,045,50,07,45,045,50,08,45,045,50*77
$GPGSV,3,3,12,09,45,045,50,10,45,045,50,11,45,045,50,12,45,045,50*71
$GPRMC,212210.00,A,5145.5201,N,14.0238,W,8.2,239.1,180718,0.0,E,A*1e
$GPVTG,239.1,T,0.0,M,8.2,N,15.2,K*7b
$GPGGA,212210.00,5145.5201,N,14.0238,W,12,12,1.0,85.5,M,0.0,M,0.0,0000*55
$GPGSA,A,3,01,02,03,04,05,06,07,08,09,10,11,12,1.2,1.0,0.6*35
$GPGSV,3,1,12,01,45,045,50,02,45,045,50,03,45,045,50,04,45,045,50*7c
$GPGSV,3,2,12,05,45,045,50,06,45,045,50,07,45,045,50,08,45,045,50*77
$GPGSV,3,3,12,09,45,045,50,10,45,045,50,11,45,045,50,12,45,045,50*71
$GPRMC,212211.00,A,5145.5189,N,14.0272,W,8.4,240.8,180718,0.0,E,A*13
$GPVTG,240.8,T,0.0,M,8.4,N,15.5,K*7d
$GPGGA,212211.00,5145.5189,N,14.0272,W,12,12,1.0,85.2,M,0.0,M,0.0,0000*5e
$GPGSA,A,3,01,02,03,04,05,06,07,08,09,10,11,12,1.2,1.0,0.6*35
$GPGSV,3,1,12,01,45,045,50,02,45,045,50,03,45,045,50,04,45,045,50*7c
$GPGSV,3,2,12,05,45,045,50,06,45,045,50,07,45,045,50,08,45,045,50*77
$GPGSV,3,3,12,09,45,045,50,10,45,045,50,11,45,045,50,12,45,045,50*71
$GPRMC,212212.00,A,5145.5177,N,14.0306,W,8.6,241.5,180718,0.0,E,A*1d
$GPVTG,241.5,T,0.0,M,8.6,N,15.8,K*7e
$GPGGA,212212.00,5145.5177,N,14.0306,W,12,12,1.0,84.8,M,0.0,M,0.0,0000*55
$GPGSA,A,3,01,02,03,04,05,06,07,08,09,10,11,12,1.2,1.0,0.6*35
$GPGSV,3,1,12,01,45,045,50,02,45,045,50,03,45,045,50,04,45,045,50*7c
$GPGSV,3,2,12,05,45,045,50,06,45,045,50,07,45,045,50,08,45,045,50*77
$GPGSV,3,3,12,09,45,045,50,10,45,045,50,11,45,045,50,12,45,045,50*71
$GPRMC,212213.00,A,5145.5165,N,14.0341,W,8.9,240.5,180718,0.0,E,A*12
$GPVTG,240.5,T,0.0,M,8.9,N,16.6,K*7d
$GPGGA,212213.00,5145.5165,N,14.0341,W,12,12,1.0,84.7,M,0.0,M,0.0,0000*5b
$GPGSA,A,3,01,02,03,04,05,06,07,08,09,10,11,12,1.2,1.0,0.6*35
$GPGSV,3,1,12,01,45,045,50,02,45,045,50,03,45,045,50,04,45,045,50*7c
$GPGSV,3,2,12,05,45,045,50,06,45,045,50,07,45,045,50,08,45,045,50*77
$GPGSV,3,3,12,09,45,045,50,10,45,045,50,11,45,045,50,12,45,045,50*71
$GPRMC,212214.00,A,5145.5151,N,14.0375,W,9.0,238.4,180718,0.0,E,A*13
$GPVTG,238.4,T,0.0,M,9.0,N,16.7,K*7a
$GPGGA,212214.00,5145.5151,N,14.0375,W,12,12,1.0,84.7,M,0.0,M,0.0,0000*5c
$GPGSA,A,3,01,02,03,04,05,06,07,08,09,10,11,12,1.2,1.0,0.6*35
$GPGSV,3,1,12,01,45,045,50,02,45,045,50,03,45,045,50,04,45,045,50*7c
$GPGSV,3,2,12,05,45,045,50,06,45,045,50,07,45,045,50,08,45,045,50*77
$GPGSV,3,3,12,09,45,045,50,10,45,045,50,11,45,045,50,12,45,045,50*71
$GPRMC,212215.00,A,5145.5136,N,14.0408,W,8.9,236.2,180718,0.0,E,A*1e
$GPVTG,236.2,T,0.0,M,8.9,N,16.6,K*7b
$GPGGA,212215.00,5145.5136,N,14.0408,W,12,12,1.0,84.5,M,0.0,M,0.0,0000*53
$GPGSA,A,3,01,02,03,04,05,06,07,08,09,10,11,12,1.2,1.0,0.6*35
$GPGSV,3,1,12,01,45,045,50,02,45,045,50,03,45,045,50,04,45,045,50*7c
$GPGSV,3,2,12,05,45,045,50,06,45,045,50,07,45,045,50,08,45,045,50*77
$GPGSV,3,3,12,09,45,045,50,10,45,045,50,11,45,045,50,12,45,045,50*71
$GPRMC,212216.00,A,5145.5121,N,14.0440,W,8.9,234.1,180718,0.0,E,A*16
$GPVTG,234.1,T,0.0,M,8.9,N,16.6,K*7a
$GPGGA,212216.00,5145.5121,N,14.0440,W,12,12,1.0,84.3,M,0.0,M,0.0,0000*5c
$GPGSA,A,3,01,02,03,04,05,06,07,08,09,10,11,12,1.2,1.0,0.6*35
$GPGSV,3,1,12,01,45,045,50,02,45,045,50,03,45,045,50,04,45,045,50*7c
$GPGSV,3,2,12,05,45,045,50,06,45,045,50,07,45,045,50,08,45,045,50*77
$GPGSV,3,3,12,09,45,045,50,10,45,045,50,11,45,045,50,12,45,045,50*71
$GPRMC,212217.00,A,5145.5105,N,14.0472,W,8.9,233.4,180718,0.0,E,A*12
$GPVTG,233.4,T,0.0,M,8.9,N,16.6,K*78
$GPGGA,212217.00,5145.5105,N,14.0472,W,12,12,1.0,84.3,M,0.0,M,0.0,0000*5a
$GPGSA,A,3,01,02,03,04,05,06,07,08,09,10,11,12,1.2,1.0,0.6*35
$GPGSV,3,1,12,01,45,045,50,02,45,045,50,03,45,045,50,04,45,045,50*7c
$GPGSV,3,2,12,05,45,045,50,06,45,045,50,07,45,045,50,08,45,045,50*77
$GPGSV,3,3,12,09,45,045,50,10,45,045,50,11,45,045,50,12,45,045,50*71
$GPRMC,212218.00,A,5145.5088,N,14.0504,W,9.2,232.7,180718,0.0,E,A*11
$GPVTG,232.7,T,0.0,M,9.2,N,17.0,K*77
$GPGGA,212218.00,5145.5088,N,14.0504,W,12,12,1.0,84.4,M,0.0,M,0.0,0000*56
$GPGSA,A,3,01,02,03,04,05,06,07,08,09,10,11,12,1.2,1.0,0.6*35
$GPGSV,3,1,12,01,45,045,50,02,45,045,50,03,45,045,50,04,45,045,50*7c
$GPGSV,3,2,12,05,45,045,50,06,45,045,50,07,45,045,50,08,45,045,50*77
$GPGSV,3,3,12,09,45,045,50,10,45,045,50,11,45,045,50,12,45,045,50*71
$GPRMC,212219.00,A,5145.5069,N,14.0536,W,9.2,231.0,180718,0.0,E,A*1a
$GPVTG,231.0,T,0.0,M,9.2,N,17.0,K*73
$GPGGA,212219.00,5145.5069,N,14.0536,W,12,12,1.0,84.4,M,0.0,M,0.0,0000*59
$GPGSA,A,3,01,02,03,04,05,06,07,08,09,10,11,12,1.2,1.0,0.6*35
$GPGSV,3,1,12,01,45,045,50,02,45,045,50,03,45,045,50,04,45,045,50*7c
$GPGSV,3,2,12,05,45,045,50,06,45,045,50,07,45,045,50,08,45,045,50*77
$GPGSV,3,3,12,09,45,045,50,10,45,045,50,11,45,045,50,12,45,045,50*71
$GPRMC,212220.00,A,5145.5050,N,14.0566,W,9.2,227.5,180718,0.0,E,A*1d
$GPVTG,227.5,T,0.0,M,9.2,N,17.0,K*71
$GPGGA,212220.00,5145.5050,N,14.0566,W,12,12,1.0,84.1,M,0.0,M,0.0,0000*59
$GPGSA,A,3,01,02,03,04,05,06,07,08,09,10,11,12,1.2,1.0,0.6*35
$GPGSV,3,1,12,01,45,045,50,02,45,045,50,03,45,045,50,04,45,045,50*7c
$GPGSV,3,2,12,05,45,045,50,06,45,045,50,07,45,045,50,08,45,045,50*77
$GPGSV,3,3,12,09,45,045,50,10,45,045,50,11,45,045,50,12,45,045,50*71
$GPRMC,212221.00,A,5145.5032,N,14.0594,W,8.9,224.6,180718,0.0,E,A*1f
$GPVTG,224.6,T,0.0,M,8.9,N,16.5,K*7f
$GPGGA,212221.00,5145.5032,N,14.0594,W,12,12,1.0,84.0,M,0.0,M,0.0,0000*50
$GPGSA,A,3,01,02,03,04,05,06,07,08,09,10,11,12,1.2,1.0,0.6*35
$GPGSV,3,1,12,01,45,045,50,02,45,045,50,03,45,045,50,04,45,045,50*7c
$GPGSV,3,2,12,05,45,045,50,06,45,045,50,07,45,045,50,08,45,045,50*77
$GPGSV,3,3,12,09,45,045,50,10,45,045,50,11,45,045,50,12,45,045,50*71
$GPRMC,212222.00,A,5145.5005,N,14.0614,W,8.9,217.6,180718,0.0,E,A*13
$GPVTG,217.6,T,0.0,M,8.9,N,16.5,K*7f
$GPGGA,212222.00,5145.5005,N,14.0614,W,12,12,1.0,84.2,M,0.0,M,0.0,0000*5e
$GPGSA,A,3,01,02,03,04,05,06,07,08,09,10,11,12,1.2,1.0,0.6*35
$GPGSV,3,1,12,01,45,045,50,02,45,045,50,03,45,045,50,04,45,045,50*7c
$GPGSV,3,2,12,05,45,045,50,06,45,045,50,07,45,045,50,08,45,045,50*77
$GPGSV,3,3,12,09,45,045,50,10,45,045,50,11,45,045,50,12,45,045,50*71
$GPRMC,212223.00,A,5145.4985,N,14.0637,W,9.0,215.9,180718,0.0,E,A*16
$GPVTG,215.9,T,0.0,M,9.0,N,16.6,K*79
$GPGGA,212223.00,5145.4985,N,14.0637,W,12,12,1.0,84.5,M,0.0,M,0.0,0000*59
$GPGSA,A,3,01,02,03,04,05,06,07,08,09,10,11,12,1.2,1.0,0.6*35
$GPGSV,3,1,12,01,45,045,50,02,45,045,50,03,45,045,50,04,45,045,50*7c
$GPGSV,3,2,12,05,45,045,50,06,45,045,50,07,45,045,50,08,45,045,50*77
$GPGSV,3,3,12,09,45,045,50,10,45,045,50,11,45,045,50,12,45,045,50*71
$GPRMC,212224.00,A,5145.4961,N,14.0649,W,9.1,208.1,180718,0.0,E,A*17
$GPVTG,208.1,T,0.0,M,9.1,N,16.8,K*72
$GPGGA,212224.00,5145.4961,N,14.0649,W,12,12,1.0,84.6,M,0.0,M,0.0,0000*5e
$GPGSA,A,3,01,02,03,04,05,06,07,08,09,10,11,12,1.2,1.0,0.6*35
$GPGSV,3,1,12,01,45,045,50,02,45,045,50,03,45,045,50,04,45,045,50*7c
$GPGSV,3,2,12,05,45,045,50,06,45,045,50,07,45,045,50,08,45,045,50*77
$GPGSV,3,3,12,09,45,045,50,10,45,045,50,11,45,045,50,12,45,045,50*71
$GPRMC,212225.00,A,5145.4938,N,14.0667,W,9.1,207.8,180718,0.0,E,A*10
$GPVTG,207.8,T,0.0,M,9.1,N,16.8,K*74
$GPGGA,212225.00,5145.4938,N,14.0667,W,12,12,1.0,85.1,M,0.0,M,0.0,0000*59
$GPGSA,A,3,01,02,03,04,05,06,07,08,09,10,11,12,1.2,1.0,0.6*35
$GPGSV,3,1,12,01,45,045,50,02,45,045,50,03,45,045,50,04,45,045,50*7c
$GPGSV,3,2,12,05,45,045,50,06,45,045,50,07,45,045,50,08,45,045,50*77
$GPGSV,3,3,12,09,45,045,50,10,45,045,50,11,45,045,50,12,45,045,50*71
$GPRMC,212226.00,A,5145.4913,N,14.0681,W,9.1,206.0,180718,0.0,E,A*1b
$GPVTG,206.0,T,0.0,M,9.1,N,16.8,K*7d
$GPGGA,212226.00,5145.4913,N,14.0681,W,12,12,1.0,85.7,M,0.0,M,0.0,0000*5d
$GPGSA,A,3,01,02,03,04,05,06,07,08,09,10,11,12,1.2,1.0,0.6*35
$GPGSV,3,1,12,01,45,045,50,02,45,045,50,03,45,045,50,04,45,045,50*7c
$GPGSV,3,2,12,05,45,045,50,06,45,045,50,07,45,045,50,08,45,045,50*77
$GPGSV,3,3,12,09,45,045,50,10,45,045,50,11,45,045,50,12,45,045,50*71
$GPRMC,212227.00,A,5145.4890,N,14.0698,W,9.1,205.7,180718,0.0,E,A*1c
$GPVTG,205.7,T,0.0,M,9.1,N,16.8,K*79
$GPGGA,212227.00,5145.4890,N,14.0698,W,12,12,1.0,85.9,M,0.0,M,0.0,0000*50
$GPGSA,A,3,01,02,03,04,05,06,07,08,09,10,11,12,1.2,1.0,0.6*35
$GPGSV,3,1,12,01,45,045,50,02,45,045,50,03,45,045,50,04,45,045,50*7c
$GPGSV,3,2,12,05,45,045,50,06,45,045,50,07,45,045,50,08,45,045,50*77
$GPGSV,3,3,12,09,45,045,50,10,45,045,50,11,45,045,50,12,45,045,50*71
$GPRMC,212228.00,A,5145.4865,N,14.0707,W,8.9,201.4,180718,0.0,E,A*10
$GPVTG,201.4,T,0.0,M,8.9,N,16.5,K*7a
$GPGGA,212228.00,5145.4865,N,14.0707,W,12,12,1.0,86.3,M,0.0,M,0.0,0000*5b
$GPGSA,A,3,01,02,03,04,05,06,07,08,09,10,11,12,1.2,1.0,0.6*35
$GPGSV,3,1,12,01,45,045,50,02,45,045,50,03,45,045,50,04,45,045,50*7c
$GPGSV,3,2,12,05,45,045,50,06,45,045,50,07,45,045,50,08,45,045,50*77
$GPGSV,3,3,12,09,45,045,50,10,45,045,50,11,45,045,50,12,45,045,50*71
$GPRMC,212229.00,A,5145.4842,N,14.0720,W,9.0,201.1,180718,0.0,E,A*1c
$GPVTG,201.1,T,0.0,M,9.0,N,16.6,K*74
$GPGGA,212229.00,5145.4842,N,14.0720,W,12,12,1.0,86.6,M,0.0,M,0.0,0000*5f
$GPGSA,A,3,01,02,03,04,05,06,07,08,09,10,11,12,1.2,1.0,0.6*35
$GPGSV,3,1,12,01,45,045,50,02,45,045,50,03,45,045,50,04,45,045,50*7c
$GPGSV,3,2,12,05,45,045,50,06,45,045,50,07,45,045,50,08,45,045,50*77
$GPGSV,3,3,12,09,45,045,50,10,45,045,50,11,45,045,50,12,45,045,50*71
$GPRMC,212230.00,A,5145.4818,N,14.0733,W,8.9,200.4,180718,0.0,E,A*15
$GPVTG,200.4,T,0.0,M,8.9,N,16.6,K*78
$GPGGA,212230.00,5145.4818,N,14.0733,W,12,12,1.0,87.0,M,0.0,M,0.0,0000*5d
$GPGSA,A,3,01,02,03,04,05,06,07,08,09,10,11,12,1.2,1.0,0.6*35
$GPGSV,3,1,12,01,45,045,50,02,45,045,50,03,45,045,50,04,45,045,50*7c
$GPGSV,3,2,12,05,45,045,50,06,45,045,50,07,45,045,50,08,45,045,50*77
$GPGSV,3,3,12,09,45,045,50,10,45,045,50,11,45,045,50,12,45,045,50*71
$GPRMC,212231.00,A,5145.4795,N,14.0745,W,8.9,200.4,180718,0.0,E,A*1f
$GPVTG,200.4,T,0.0,M,8.9,N,16.6,K*78
$GPGGA,212231.00,5145.4795,N,14.0745,W,12,12,1.0,87.4,M,0.0,M,0.0,0000*53
$GPGSA,A,3,01,02,03,04,05,06,07,08,09,10,11,12,1.2,1.0,0.6*35
$GPGSV,3,1,12,01,45,045,50,02,45,045,50,03,45,045,50,04,45,045,50*7c
$GPGSV,3,2,12,05,45,045,50,06,45,045,50,07,45,045,50,08,45,045,50*77
$GPGSV,3,3,12,09,45,045,50,10,45,045,50,11,45,045,50,12,45,045,50*71
$GPRMC,212232.00,A,5145.4773,N,14.0756,W,8.9,200.0,180718,0.0,E,A*12
$GPVTG,200.0,T,0.0,M,8.9,N,16.4,K*7e
$GPGGA,212232.00,5145.4773,N,14.0756,W,12,12,1.0,87.8,M,0.0,M,0.0,0000*56
$GPGSA,A,3,01,02,03,04,05,06,07,08,09,10,11,12,1.2,1.0,0.6*35
$GPGSV,3,1,12,01,45,045,50,02,45,045,50,03,45,045,50,04,45,045,50*7c
$GPGSV,3,2,12,05,45,045,50,06,45,045,50,07,45,045,50,08,45,045,50*77
$GPGSV,3,3,12,09,45,045,50,10,45,045,50,11,45,045,50,12,45,045,50*71
$GPRMC,212233.00,A,5145.4751,N,14.0766,W,8.6,200.0,180718,0.0,E,A*1f
$GPVTG,200.0,T,0.0,M,8.6,N,16.0,K*75
$GPGGA,212233.00,5145.4751,N,14.0766,W,12,12,1.0,88.1,M,0.0,M,0.0,0000*52
$GPGSA,A,3,01,02,03,04,05,06,07,08,09,10,11,12,1.2,1.0,0.6*35
$GPGSV,3,1,12,01,45,045,50,02,45,045,50,03,45,045,50,04,45,045,50*7c
$GPGSV,3,2,12,05,45,045,50,06,45,045,50,07,45,045,50,08,45,045,50*77
$GPGSV,3,3,12,09,45,045,50,10,45,045,50,11,45,045,50,12,45,045,50*71
$GPRMC,212234.00,A,5145.4729,N,14.0778,W,8.6,200.7,180718,0.0,E,A*1f
$GPVTG,200.7,T,0.0,M,8.6,N,16.0,K*72
$GPGGA,212234.00,5145.4729,N,14.0778,W,12,12,1.0,88.3,M,0.0,M,0.0,0000*57
$GPGSA,A,3,01,02,03,04,05,06,07,08,09,10,11,12,1.2,1.0,0.6*35
$GPGSV,3,1,12,01,45,045,50,02,45,045,50,03,45,045,50,04,45,045,50*7c
$GPGSV,3,2,12,05,45,045,50,06,45,045,50,07,45,045,50,08,45,045,50*77
$GPGSV,3,3,12,09,45,045,50,10,45,045,50,11,45,045,50,12,45,045,50*71
$GPRMC,212235.00,A,5145.4708,N,14.0790,W,8.6,203.9,180718,0.0,E,A*16
$GPVTG,203.9,T,0.0,M,8.6,N,15.8,K*74
$GPGGA,212235.00,5145.4708,N,14.0790,W,12,12,1.0,88.8,M,0.0,M,0.0,0000*58
$GPGSA,A,3,01,02,03,04,05,06,07,08,09,10,11,12,1.2,1.0,0.6*35
$GPGSV,3,1,12,01,45,045,50,02,45,045,50,03,45,045,50,04,45,045,50*7c
$GPGSV,3,2,12,05,45,045,50,06,45,045,50,07,45,045,50,08,45,045,50*77
$GPGSV,3,3,12,09,45,045,50,10,45,045,50,11,45,045,50,12,45,045,50*71
$GPRMC,212236.00,A,5145.4688,N,14.0803,W,8.6,203.2,180718,0.0,E,A*12
$GPVTG,203.2,T,0.0,M,8.6,N,15.8,K*7f
$GPGGA,212236.00,5145.4688,N,14.0803,W,12,12,1.0,89.0,M,0.0,M,0.0,0000*5e
$GPGSA,A,3,01,02,03,04,05,06,07,08,09,10,11,12,1.2,1.0,0.6*35
$GPGSV,3,1,12,01,45,045,50,02,45,045,50,03,45,045,50,04,45,045,50*7c
$GPGSV,3,2,12,05,45,045,50,06,45,045,50,07,45,045,50,08,45,045,50*77
$GPGSV,3,3,12,09,45,045,50,10,45,045,50,11,45,045,50,12,45,045,50*71
$GPRMC,212237.00,A,5145.4667,N,14.0817,W,8.6,203.9,180718,0.0,E,A*1c
$GPVTG,203.9,T,0.0,M,8.6,N,15.8,K*74
$GPGGA,212237.00,5145.4667,N,14.0817,W,12,12,1.0,89.6,M,0.0,M,0.0,0000*5d
$GPGSA,A,3,01,02,03,04,05,06,07,08,09,10,11,12,1.2,1.0,0.6*35
$GPGSV,3,1,12,01,45,045,50,02,45,045,50,03,45,045,50,04,45,045,50*7c
$GPGSV,3,2,12,05,45,045,50,06,45,045,50,07,45,045,50,08,45,045,50*77
$GPGSV,3,3,12,09,45,045,50,10,45,045,50,11,45,045,50,12,45,045,50*71
$GPRMC,212238.00,A,5145.4646,N,14.0832,W,8.7,205.0,180718,0.0,E,A*19
$GPVTG,205.0,T,0.0,M,8.7,N,16.1,K*70
$GPGGA,212238.00,5145.4646,N,14.0832,W,12,12,1.0,89.8,M,0.0,M,0.0,0000*58
$GPGSA,A,3,01,02,03,04,05,06,07,08,09,10,11,12,1.2,1.0,0.6*35
$GPGSV,3,1,12,01,45,045,50,02,45,045,50,03,45,045,50,04,45,045,50*7c
$GPGSV,3,2,12,05,45,045,50,06,45,045,50,07,45,045,50,08,45,045,50*77
$GPGSV,3,3,12,09,45,045,50,10,45,045,50,11,45,045,50,12,45,045,50*71
$GPRMC,212239.00,A,5145.4625,N,14.0847,W,8.7,207.1,180718,0.0,E,A*1c
$GPVTG,207.1,T,0.0,M,8.7,N,16.1,K*73
$GPGGA,212239.00,5145.4625,N,14.0847,W,12,12,1.0,89.7,M,0.0,M,0.0,0000*51
$GPGSA,A,3,01,02,03,04,05,06,07,08,09,10,11,12,1.2,1.0,0.6*35
$GPGSV,3,1,12,01,45,045,50,02,45,045,50,03,45,045,50,04,45,045,50*7c
$GPGSV,3,2,12,05,45,045,50,06,45,045,50,07,45,045,50,08,45,045,50*77
$GPGSV,3,3,12,09,45,045,50,10,45,045,50,11,45,045,50,12,45,045,50*71
$GPRMC,212240.00,A,5145.4605,N,14.0864,W,8.7,209.9,180718,0.0,E,A*17
$GPVTG,209.9,T,0.0,M,8.7,N,16.0,K*74
$GPGGA,212240.00,5145.4605,N,14.0864,W,12,12,1.0,89.9,M,0.0,M,0.0,0000*52
$GPGSA,A,3,01,02,03,04,05,06,07,08,09,10,11,12,1.2,1.0,0.6*35
$GPGSV,3,1,12,01,45,045,50,02,45,045,50,03,45,045,50,04,45,045,50*7c
$GPGSV,3,2,12,05,45,045,50,06,45,045,50,07,45,045,50,08,45,045,50*77
$GPGSV,3,3,12,09,45,045,50,10,45,045,50,11,45,045,50,12,45,045,50*71
$GPRMC,212241.00,A,5145.4585,N,14.0882,W,8.7,212.3,180718,0.0,E,A*15
$GPVTG,212.3,T,0.0,M,8.7,N,16.0,K*74
$GPGGA,212241.00,5145.4585,N,14.0882,W,12,12,1.0,90.0,M,0.0,M,0.0,0000*51
$GPGSA,A,3,01,02,03,04,05,06,07,08,09,10,11,12,1.2,1.0,0.6*35
$GPGSV,3,1,12,01,45,045,50,02,45,045,50,03,45,045,50,04,45,045,50*7c
$GPGSV,3,2,12,05,45,045,50,06,45,045,50,07,45,045,50,08,45,045,50*77
$GPGSV,3,3,12,09,45,045,50,10,45,045,50,11,45,045,50,12,45,045,50*71
$GPRMC,212242.00,A,5145.4566,N,14.0904,W,8.6,215.5,180718,0.0,E,A*14
$GPVTG,215.5,T,0.0,M,8.6,N,16.0,K*74
$GPGGA,212242.00,5145.4566,N,14.0904,W,12,12,1.0,90.4,M,0.0,M,0.0,0000*54
$GPGSA,A,3,01,02,03,04,05,06,07,08,09,10,11,12,1.2,1.0,0.6*35
$GPGSV,3,1,12,01,45,045,50,02,45,045,50,03,45,045,50,04,45,045,50*7c
$GPGSV,3,2,12,05,45,045,50,06,45,045,50,07,45,045,50,08,45,045,50*77
$GPGSV,3,3,12,09,45,045,50,10,45,045,50,11,45,045,50,12,45,045,50*71
$GPRMC,212243.00,A,5145.4549,N,14.0928,W,8.6,219.4,180718,0.0,E,A*1b
$GPVTG,219.4,T,0.0,M,8.6,N,15.9,K*73
$GPGGA,212243.00,5145.4549,N,14.0928,W,12,12,1.0,90.4,M,0.0,M,0.0,0000*56
$GPGSA,A,3,01,02,03,04,05,06,07,08,09,10,11,12,1.2,1.0,0.6*35
$GPGSV,3,1,12,01,45,045,50,02,45,045,50,03,45,045,50,04,45,045,50*7c
$GPGSV,3,2,12,05,45,045,50,06,45,045,50,07,45,045,50,08,45,045,50*77
$GPGSV,3,3,12,09,45,045,50,10,45,045,50,11,45,045,50,12,45,045,50*71
$GPRMC,212244.00,A,5145.4532,N,14.0954,W,8.6,221.8,180718,0.0,E,A*1c
$GPVTG,221.8,T,0.0,M,8.6,N,15.9,K*74
$GPGGA,212244.00,5145.4532,N,14.0954,W,12,12,1.0,90.5,M,0.0,M,0.0,0000*57
$GPGSA,A,3,01,02,03,04,05,06,07,08,09,10,11,12,1.2,1.0,0.6*35
$GPGSV,3,1,12,01,45,045,50,02,45,045,50,03,45,045,50,04,45,045,50*7c
$GPGSV,3,2,12,05,45,045,50,06,45,045,50,07,45,045,50,08,45,045,50*77
$GPGSV,3,3,12,09,45,045,50,10,45,045,50,11,45,045,50,12,45,045,50*71
$GPRMC,212245.00,A,5145.4520,N,14.0988,W,8.5,232.4,180718,0.0,E,A*12
$GPVTG,232.4,T,0.0,M,8.5,N,15.7,K*77
$GPGGA,212245.00,5145.4520,N,14.0988,W,12,12,1.0,90.6,M,0.0,M,0.0,0000*57
$GPGSA,A,3,01,02,03,04,05,06,07,08,09,10,11,12,1.2,1.0,0.6*35
$GPGSV,3,1,12,01,45,045,50,02,45,045,50,03,45,045,50,04,45,045,50*7c
$GPGSV,3,2,12,05,45,045,50,06,45,045,50,07,45,045,50,08,45,045,50*77
$GPGSV,3,3,12,09,45,045,50,10,45,045,50,11,45,045,50,12,45,045,50*71
$GPRMC,212246.00,A,5145.4507,N,14.1019,W,8.3,232.7,180718,0.0,E,A*11
$GPVTG,232.7,T,0.0,M,8.3,N,15.4,K*71
$GPGGA,212246.00,5145.4507,N,14.1019,W,12,12,1.0,90.8,M,0.0,M,0.0,0000*5f
$GPGSA,A,3,01,02,03,04,05,06,07,08,09,10,11,12,1.2,1.0,0.6*35
$GPGSV,3,1,12,01,45,045,50,02,45,045,50,03,45,045,50,04,45,045,50*7c
$GPGSV,3,2,12,05,45,045,50,06,45,045,50,07,45,045,50,08,45,045,50*77
$GPGSV,3,3,12,09,45,045,50,10,45,045,50,11,45,045,50,12,45,045,50*71
$GPRMC,212247.00,A,5145.4495,N,14.1050,W,8.3,231.7,180718,0.0,E,A*14
$GPVTG,231.7,T,0.0,M,8.3,N,15.4,K*72
$GPGGA,212247.00,5145.4495,N,14.1050,W,12,12,1.0,90.6,M,0.0,M,0.0,0000*57
$GPGSA,A,3,01,02,03,04,05,06,07,08,09,10,11,12,1.2,1.0,0.6*35
$GPGSV,3,1,12,01,45,045,50,02,45,045,50,03,45,045,50,04,45,045,50*7c
$GPGSV,3,2,12,05,45,045,50,06,45,045,50,07,45,045,50,08,45,045,50*77
$GPGSV,3,3,12,09,45,045,50,10,45,045,50,11,45,045,50,12,45,045,50*71
$GPRMC,212248.00,A,5145.4481,N,14.1080,W,8.1,232.4,180718,0.0,E,A*11
$GPVTG,232.4,T,0.0,M,8.1,N,15.0,K*74
$GPGGA,212248.00,5145.4481,N,14.1080,W,12,12,1.0,90.5,M,0.0,M,0.0,0000*53
$GPGSA,A,3,01,02,03,04,05,06,07,08,09,10,11,12,1.2,1.0,0.6*35
$GPGSV,3,1,12,01,45,045,50,02,45,045,50,03,45,045,50,04,45,045,50*7c
$GPGSV,3,2,12,05,45,045,50,06,45,045,50,07,45,045,50,08,45,045,50*77
$GPGSV,3,3,12,09,45,045,50,10,45,045,50,11,45,045,50,12,45,045,50*71
$GPRMC,212249.00,A,5145.4469,N,14.1115,W,8.3,235.5,180718,0.0,E,A*1f
$GPVTG,235.5,T,0.0,M,8.3,N,15.4,K*74
$GPGGA,212249.00,5145.4469,N,14.1115,W,12,12,1.0,90.4,M,0.0,M,0.0,0000*58
$GPGSA,A,3,01,02,03,04,05,06,07,08,09,10,11,12,1.2,1.0,0.6*35
$GPGSV,3,1,12,01,45,045,50,02,45,045,50,03,45,045,50,04,45,045,50*7c
$GPGSV,3,2,12,05,45,045,50,06,45,045,50,07,45,045,50,08,45,045,50*77
$GPGSV,3,3,12,09,45,045,50,10,45,045,50,11,45,045,50,12,45,045,50*71
$GPRMC,212250.00,A,5145.4456,N,14.1147,W,8.3,236.2,180718,0.0,E,A*18
$GPVTG,236.2,T,0.0,M,8.3,N,15.4,K*70
$GPGGA,212250.00,5145.4456,N,14.1147,W,12,12,1.0,90.4,M,0.0,M,0.0,0000*5b
$GPGSA,A,3,01,02,03,04,05,06,07,08,09,10,11,12,1.2,1.0,0.6*35
$GPGSV,3,1,12,01,45,045,50,02,45,045,50,03,45,045,50,04,45,045,50*7c
$GPGSV,3,2,12,05,45,045,50,06,45,045,50,07,45,045,50,08,45,045,50*77
$GPGSV,3,3,12,09,45,045,50,10,45,045,50,11,45,045,50,12,45,045,50*71
$GPRMC,212251.00,A,5145.4445,N,14.1189,W,8.8,239.1,180718,0.0,E,A*1e
$GPVTG,239.1,T,0.0,M,8.8,N,16.3,K*73
$GPGGA,212251.00,5145.4445,N,14.1189,W,12,12,1.0,90.6,M,0.0,M,0.0,0000*58
$GPGSA,A,3,01,02,03,04,05,06,07,08,09,10,11,12,1.2,1.0,0.6*35
$GPGSV,3,1,12,01,45,045,50,02,45,045,50,03,45,045,50,04,45,045,50*7c
$GPGSV,3,2,12,05,45,045,50,06,45,045,50,07,45,045,50,08,45,045,50*77
$GPGSV,3,3,12,09,45,045,50,10,45,045,50,11,45,045,50,12,45,045,50*71
$GPRMC,212252.00,A,5145.4433,N,14.1226,W,9.4,238.4,180718,0.0,E,A*13
$GPVTG,238.4,T,0.0,M,9.4,N,17.5,K*7d
$GPGGA,212252.00,5145.4433,N,14.1226,W,12,12,1.0,90.6,M,0.0,M,0.0,0000*5c
$GPGSA,A,3,01,02,03,04,05,06,07,08,09,10,11,12,1.2,1.0,0.6*35
$GPGSV,3,1,12,01,45,045,50,02,45,045,50,03,45,045,50,04,45,045,50*7c
$GPGSV,3,2,12,05,45,045,50,06,45,045,50,07,45,045,50,08,45,045,50*77
$GPGSV,3,3,12,09,45,045,50,10,45,045,50,11,45,045,50,12,45,045,50*71
$GPRMC,212253.00,A,5145.4420,N,14.1265,W,9.8,242.2,180718,0.0,E,A*10
$GPVTG,242.2,T,0.0,M,9.8,N,18.1,K*71
$GPGGA,212253.00,5145.4420,N,14.1265,W,12,12,1.0,90.6,M,0.0,M,0.0,0000*58
$GPGSA,A,3,01,02,03,04,05,06,07,08,09,10,11,12,1.2,1.0,0.6*35
$GPGSV,3,1,12,01,45,045,50,02,45,045,50,03,45,045,50,04,45,045,50*7c
$GPGSV,3,2,12,05,45,045,50,06,45,045,50,07,45,045,50,08,45,045,50*77
$GPGSV,3,3,12,09,45,045,50,10,45,045,50,11,45,045,50,12,45,045,50*71
$GPRMC,212254.00,A,5145.4406,N,14.1303,W,9.8,235.5,180718,0.0,E,A*15
$GPVTG,235.5,T,0.0,M,9.8,N,18.1,K*76
$GPGGA,212254.00,5145.4406,N,14.1303,W,12,12,1.0,90.7,M,0.0,M,0.0,0000*5b
$GPGSA,A,3,01,02,03,04,05,06,07,08,09,10,11,12,1.2,1.0,0.6*35
$GPGSV,3,1,12,01,45,045,50,02,45,045,50,03,45,045,50,04,45,045,50*7c
$GPGSV,3,2,12,05,45,045,50,06,45,045,50,07,45,045,50,08,45,045,50*77
$GPGSV,3,3,12,09,45,045,50,10,45,045,50,11,45,045,50,12,45,045,50*71
$GPRMC,212255.00,A,5145.4391,N,14.1339,W,9.6,237.0,180718,0.0,E,A*1d
$GPVTG,237.0,T,0.0,M,9.6,N,17.7,K*76
$GPGGA,212255.00,5145.4391,N,14.1339,W,12,12,1.0,90.7,M,0.0,M,0.0,0000*5a
$GPGSA,A,3,01,02,03,04,05,06,07,08,09,10,11,12,1.2,1.0,0.6*35
$GPGSV,3,1,12,01,45,045,50,02,45,045,50,03,45,045,50,04,45,045,50*7c
$GPGSV,3,2,12,05,45,045,50,06,45,045,50,07,45,045,50,08,45,045,50*77
$GPGSV,3,3,12,09,45,045,50,10,45,045,50,11,45,045,50,12,45,045,50*71
$GPRMC,212256.00,A,5145.4379,N,14.1371,W,9.2,235.5,180718,0.0,E,A*17
$GPVTG,235.5,T,0.0,M,9.2,N,17.1,K*73
$GPGGA,212256.00,5145.4379,N,14.1371,W,12,12,1.0,90.8,M,0.0,M,0.0,0000*5c
$GPGSA,A,3,01,02,03,04,05,06,07,08,09,10,11,12,1.2,1.0,0.6*35
$GPGSV,3,1,12,01,45,045,50,02,45,045,50,03,45,045,50,04,45,045,50*7c
$GPGSV,3,2,12,05,45,045,50,06,45,045,50,07,45,045,50,08,45,045,50*77
$GPGSV,3,3,12,09,45,045,50,10,45,045,50,11,45,045,50,12,45,045,50*71
$GPRMC,212257.00,A,5145.4365,N,14.1403,W,8.6,240.1,180718,0.0,E,A*1a
$GPVTG,240.1,T,0.0,M,8.6,N,16.0,K*70
$GPGGA,212257.00,5145.4365,N,14.1403,W,12,12,1.0,91.0,M,0.0,M,0.0,0000*5b
$GPGSA,A,3,01,02,03,04,05,06,07,08,09,10,11,12,1.2,1.0,0.6*35
$GPGSV,3,1,12,01,45,045,50,02,45,045,50,03,45,045,50,04,45,045,50*7c
$GPGSV,3,2,12,05,45,045,50,06,45,045,50,07,45,045,50,08,45,045,50*77
$GPGSV,3,3,12,09,45,045,50,10,45,045,50,11,45,045,50,12,45,045,50*71
$GPRMC,212258.00,A,5145.4352,N,14.1430,W,8.3,234.5,180718,0.0,E,A*13
$GPVTG,234.5,T,0.0,M,8.3,N,15.3,K*72
$GPGGA,212258.00,5145.4352,N,14.1430,W,12,12,1.0,91.2,M,0.0,M,0.0,0000*52
$GPGSA,A,3,01,02,03,04,05,06,07,08,09,10,11,12,1.2,1.0,0.6*35
$GPGSV,3,1,12,01,45,045,50,02,45,045,50,03,45,045,50,04,45,045,50*7c
$GPGSV,3,2,12,05,45,045,50,06,45,045,50,07,45,045,50,08,45,045,50*77
$GPGSV,3,3,12,09,45,045,50,10,45,045,50,11,45,045,50,12,45,045,50*71
$GPRMC,212259.00,A,5145.4341,N,14.1460,W,7.9,253.5,180718,0.0,E,A*11
$GPVTG,253.5,T,0.0,M,7.9,N,14.6,K*72
$GPGGA,212259.00,5145.4341,N,14.1460,W,12,12,1.0,91.3,M,0.0,M,0.0,0000*55
$GPGSA,A,3,01,02,03,04,05,06,07,08,09,10,11,12,1.2,1.0,0.6*35
$GPGSV,3,1,12,01,45,045,50,02,45,045,50,03,45,045,50,04,45,045,50*7c
$GPGSV,3,2,12,05,45,045,50,06,45,045,50,07,45,045,50,08,45,045,50*77
$GPGSV,3,3,12,09,45,045,50,10,45,045,50,11,45,045,50,12,45,045,50*71
$GPRMC,212300.00,A,5145.4325,N,14.1488,W,8.4,231.0,180718,0.0,E,A*1b
$GPVTG,231.0,T,0.0,M,8.4,N,15.5,K*73
$GPGGA,212300.00,5145.4325,N,14.1488,W,12,12,1.0,91.3,M,0.0,M,0.0,0000*5c
$GPGSA,A,3,01,02,03,04,05,06,07,08,09,10,11,12,1.2,1.0,0.6*35
$GPGSV,3,1,12,01,45,045,50,02,45,045,50,03,45,045,50,04,45,045,50*7c
$GPGSV,3,2,12,05,45,045,50,06,45,045,50,07,45,045,50,08,45,045,50*77
$GPGSV,3,3,12,09,45,045,50,10,45,045,50,11,45,045,50,12,45,045,50*71
$GPRMC,212301.00,A,5145.4309,N,14.1517,W,8.6,231.7,180718,0.0,E,A*16
$GPVTG,231.7,T,0.0,M,8.6,N,15.9,K*7a
$GPGGA,212301.00,5145.4309,N,14.1517,W,12,12,1.0,91.4,M,0.0,M,0.0,0000*53
$GPGSA,A,3,01,02,03,04,05,06,07,08,09,10,11,12,1.2,1.0,0.6*35
$GPGSV,3,1,12,01,45,045,50,02,45,045,50,03,45,045,50,04,45,045,50*7c
$GPGSV,3,2,12,05,45,045,50,06,45,045,50,07,45,045,50,08,45,045,50*77
$GPGSV,3,3,12,09,45,045,50,10,45,045,50,11,45,045,50,12,45,045,50*71
$GPRMC,212302.00,A,5145.4292,N,14.1545,W,8.7,224.6,180718,0.0,E,A*15
$GPVTG,224.6,T,0.0,M,8.7,N,16.2,K*76
$GPGGA,212302.00,5145.4292,N,14.1545,W,12,12,1.0,91.5,M,0.0,M,0.0,0000*55
$GPGSA,A,3,01,02,03,04,05,06,07,08,09,10,11,12,1.2,1.0,0.6*35
$GPGSV,3,1,12,01,45,045,50,02,45,045,50,03,45,045,50,04,45,045,50*7c
$GPGSV,3,2,12,05,45,045,50,06,45,045,50,07,45,045,50,08,45,045,50*77
$GPGSV,3,3,12,09,45,045,50,10,45,045,50,11,45,045,50,12,45,045,50*71
$GPRMC,212303.00,A,5145.4274,N,14.1571,W,8.6,222.2,180718,0.0,E,A*18
$GPVTG,222.2,T,0.0,M,8.6,N,15.9,K*7d
$GPGGA,212303.00,5145.4274,N,14.1571,W,12,12,1.0,91.8,M,0.0,M,0.0,0000*56
$GPGSA,A,3,01,02,03,04,05,06,07,08,09,10,11,12,1.2,1.0,0.6*35
$GPGSV,3,1,12,01,45,045,50,02,45,045,50,03,45,045,50,04,45,045,50*7c
$GPGSV,3,2,12,05,45,045,50,06,45,045,50,07,45,045,50,08,45,045,50*77
$GPGSV,3,3,12,09,45,045,50,10,45,045,50,11,45,045,50,12,45,045,50*71
$GPRMC,212304.00,A,5145.4255,N,14.1596,W,8.5,222.5,180718,0.0,E,A*11
$GPVTG,222.5,T,0.0,M,8.5,N,15.7,K*77
$GPGGA,212304.00,5145.4255,N,14.1596,W,12,12,1.0,91.9,M,0.0,M,0.0,0000*5a
$GPGSA,A,3,01,02,03,04,05,06,07,08,09,10,11,12,1.2,1.0,0.6*35
$GPGSV,3,1,12,01,45,045,50,02,45,045,50,03,45,045,50,04,45,045,50*7c
$GPGSV,3,2,12,05,45,045,50,06,45,045,50,07,45,045,50,08,45,045,50*77
$GPGSV,3,3,12,09,45,045,50,10,45,045,50,11,45,045,50,12,45,045,50*71
$GPRMC,212305.00,A,5145.4237,N,14.1620,W,8.3,220.8,180718,0.0,E,A*13
$GPVTG,220.8,T,0.0,M,8.3,N,15.4,K*7d
$GPGGA,212305.00,5145.4237,N,14.1620,W,12,12,1.0,92.0,M,0.0,M,0.0,0000*5b
$GPGSA,A,3,01,02,03,04,05,06,07,08,09,10,11,12,1.2,1.0,0.6*35
$GPGSV,3,1,12,01,45,045,50,02,45,045,50,03,45,045,50,04,45,045,50*7c
$GPGSV,3,2,12,05,45,045,50,06,45,045,50,07,45,045,50,08,45,045,50*77
$GPGSV,3,3,12,09,45,045,50,10,45,045,50,11,45,045,50,12,45,045,50*71
$GPRMC,212306.00,A,5145.4218,N,14.1642,W,8.3,219.0,180718,0.0,E,A*1b
$GPVTG,219.0,T,0.0,M,8.3,N,15.4,K*7f
$GPGGA,212306.00,5145.4218,N,14.1642,W,12,12,1.0,92.1,M,0.0,M,0.0,0000*50
$GPGSA,A,3,01,02,03,04,05,06,07,08,09,10,11,12,1.2,1.0,0.6*35
$GPGSV,3,1,12,01,45,045,50,02,45,045,50,03,45,045,50,04,45,045,50*7c
$GPGSV,3,2,12,05,45,045,50,06,45,045,50,07,45,045,50,08,45,045,50*77
$GPGSV,3,3,12,09,45,045,50,10,45,045,50,11,45,045,50,12,45,045,50*71
$GPRMC,212307.00,A,5145.4199,N,14.1663,W,8.3,218.0,180718,0.0,E,A*12
$GPVTG,218.0,T,0.0,M,8.3,N,15.4,K*7e
$GPGGA,212307.00,5145.4199,N,14.1663,W,12,12,1.0,92.2,M,0.0,M,0.0,0000*5b
$GPGSA,A,3,01,02,03,04,05,06,07,08,09,10,11,12,1.2,1.0,0.6*35
$GPGSV,3,1,12,01,45,045,50,02,45,045,50,03,45,045,50,04,45,045,50*7c
$GPGSV,3,2,12,05,45,045,50,06,45,045,50,07,45,045,50,08,45,045,50*77
$GPGSV,3,3,12,09,45,045,50,10,45,045,50,11,45,045,50,12,45,045,50*71
$GPRMC,212308.00,A,5145.4181,N,14.1685,W,8.2,218.7,180718,0.0,E,A*1a
$GPVTG,218.7,T,0.0,M,8.2,N,15.2,K*7e
$GPGGA,212308.00,5145.4181,N,14.1685,W,12,12,1.0,92.5,M,0.0,M,0.0,0000*52
$GPGSA,A,3,01,02,03,04,05,06,07,08,09,10,11,12,1.2,1.0,0.6*35
$GPGSV,3,1,12,01,45,045,50,02,45,045,50,03,45,045,50,04,45,045,50*7c
$GPGSV,3,2,12,05,45,045,50,06,45,045,50,07,45,045,50,08,45,045,50*77
$GPGSV,3,3,12,09,45,045,50,10,45,045,50,11,45,045,50,12,45,045,50*71
$GPRMC,212309.00,A,5145.4163,N,14.1707,W,8.2,219.4,180718,0.0,E,A*1e
$GPVTG,219.4,T,0.0,M,8.2,N,15.3,K*7d
$GPGGA,212309.00,5145.4163,N,14.1707,W,12,12,1.0,92.6,M,0.0,M,0.0,0000*57
$GPGSA,A,3,01,02,03,04,05,06,07,08,09,10,11,12,1.2,1.0,0.6*35
$GPGSV,3,1,12,01,45,045,50,02,45,045,50,03,45,045,50,04,45,045,50*7c
$GPGSV,3,2,12,05,45,045,50,06,45,045,50,07,45,045,50,08,45,045,50*77
$GPGSV,3,3,12,09,45,045,50,10,45,045,50,11,45,045,50,12,45,045,50*71
$GPRMC,212310.00,A,5145.4146,N,14.1730,W,8.2,221.1,180718,0.0,E,A*1b
$GPVTG,221.1,T,0.0,M,8.2,N,15.2,K*72
$GPGGA,212310.00,5145.4146,N,14.1730,W,12,12,1.0,92.8,M,0.0,M,0.0,0000*52
$GPGSA,A,3,01,02,03,04,05,06,07,08,09,10,11,12,1.2,1.0,0.6*35
$GPGSV,3,1,12,01,45,045,50,02,45,045,50,03,45,045,50,04,45,045,50*7c
$GPGSV,3,2,12,05,45,045,50,06,45,045,50,07,45,045,50,08,45,045,50*77
$GPGSV,3,3,12,09,45,045,50,10,45,045,50,11,45,045,50,12,45,045,50*71
$GPRMC,212311.00,A,5145.4130,N,14.1754,W,8.0,222.2,180718,0.0,E,A*1b
$GPVTG,222.2,T,0.0,M,8.0,N,14.9,K*7a
$GPGGA,212311.00,5145.4130,N,14.1754,W,12,12,1.0,92.9,M,0.0,M,0.0,0000*51
$GPGSA,A,3,01,02,03,04,05,06,07,08,09,10,11,12,1.2,1.0,0.6*35
$GPGSV,3,1,12,01,45,045,50,02,45,045,50,03,45,045,50,04,45,045,50*7c
$GPGSV,3,2,12,05,45,045,50,06,45,045,50,07,45,045,50,08,45,045,50*77
$GPGSV,3,3,12,09,45,045,50,10,45,045,50,11,45,045,50,12,45,045,50*71
$GPRMC,212312.00,A,5145.4115,N,14.1780,W,8.0,226.1,180718,0.0,E,A*11
$GPVTG,226.1,T,0.0,M,8.0,N,14.9,K*7d
$GPGGA,212312.00,5145.4115,N,14.1780,W,12,12,1.0,93.1,M,0.0,M,0.0,0000*55
$GPGSA,A,3,01,02,03,04,05,06,07,08,09,10,11,12,1.2,1.0,0.6*35
$GPGSV,3,1,12,01,45,045,50,02,45,045,50,03,45,045,50,04,45,045,50*7c
$GPGSV,3,2,12,05,45,045,50,06,45,045,50,07,45,045,50,08,45,045,50*77
$GPGSV,3,3,12,09,45,045,50,10,45,045,50,11,45,045,50,12,45,045,50*71
$GPRMC,212313.00,A,5145.4101,N,14.1808,W,8.0,229.2,180718,0.0,E,A*16
$GPVTG,229.2,T,0.0,M,8.0,N,14.9,K*71
$GPGGA,212313.00,5145.4101,N,14.1808,W,12,12,1.0,93.2,M,0.0,M,0.0,0000*5d
$GPGSA,A,3,01,02,03,04,05,06,07,08,09,10,11,12,1.2,1.0,0.6*35
$GPGSV,3,1,12,01,45,045,50,02,45,045,50,03,45,045,50,04,45,045,50*7c
$GPGSV,3,2,12,05,45,045,50,06,45,045,50,07,45,045,50,08,45,045,50*77
$GPGSV,3,3,12,09,45,045,50,10,45,045,50,11,45,045,50,12,45,045,50*71
$GPRMC,212314.00,A,5145.4088,N,14.1836,W,8.0,232.4,180718,0.0,E,A*10
$GPVTG,232.4,T,0.0,M,8.0,N,14.9,K*7d
$GPGGA,212314.00,5145.4088,N,14.1836,W,12,12,1.0,93.2,M,0.0,M,0.0,0000*57
$GPGSA,A,3,01,02,03,04,05,06,07,08,09,10,11,12,1.2,1.0,0.6*35
$GPGSV,3,1,12,01,45,045,50,02,45,045,50,03,45,045,50,04,45,045,50*7c
$GPGSV,3,2,12,05,45,045,50,06,45,045,50,07,45,045,50,08,45,045,50*77
$GPGSV,3,3,12,09,45,045,50,10,45,045,50,11,45,045,50,12,45,045,50*71
$GPRMC,212315.00,A,5145.4078,N,14.1865,W,7.6,236.2,180718,0.0,E,A*13
$GPVTG,236.2,T,0.0,M,7.6,N,14.1,K*7e
$GPGGA,212315.00,5145.4078,N,14.1865,W,12,12,1.0,93.1,M,0.0,M,0.0,0000*5c
$GPGSA,A,3,01,02,03,04,05,06,07,08,09,10,11,12,1.2,1.0,0.6*35
$GPGSV,3,1,12,01,45,045,50,02,45,045,50,03,45,045,50,04,45,045,50*7c
$GPGSV,3,2,12,05,45,045,50,06,45,045,50,07,45,045,50,08,45,045,50*77
$GPGSV,3,3,12,09,45,045,50,10,45,045,50,11,45,045,50,12,45,045,50*71
$GPRMC,212316.00,A,5145.4068,N,14.1893,W,7.5,237.7,180718,0.0,E,A*1f
$GPVTG,237.7,T,0.0,M,7.5,N,13.9,K*76
$GPGGA,212316.00,5145.4068,N,14.1893,W,12,12,1.0,92.9,M,0.0,M,0.0,0000*5e
$GPGSA,A,3,01,02,03,04,05,06,07,08,09,10,11,12,1.2,1.0,0.6*35
$GPGSV,3,1,12,01,45,045,50,02,45,045,50,03,45,045,50,04,45,045,50*7c
$GPGSV,3,2,12,05,45,045,50,06,45,045,50,07,45,045,50,08,45,045,50*77
$GPGSV,3,3,12,09,45,045,50,10,45,045,50,11,45,045,50,12,45,045,50*71
$GPRMC,212317.00,A,5145.4058,N,14.1920,W,7.4,237.0,180718,0.0,E,A*12
$GPVTG,237.0,T,0.0,M,7.4,N,13.8,K*71
$GPGGA,212317.00,5145.4058,N,14.1920,W,12,12,1.0,92.9,M,0.0,M,0.0,0000*55
$GPGSA,A,3,01,02,03,04,05,06,07,08,09,10,11,12,1.2,1.0,0.6*35
$GPGSV,3,1,12,01,45,045,50,02,45,045,50,03,45,045,50,04,45,045,50*7c
$GPGSV,3,2,12,05,45,045,50,06,45,045,50,07,45,045,50,08,45,045,50*77
$GPGSV,3,3,12,09,45,045,50,10,45,045,50,11,45,045,50,12,45,045,50*71
$GPRMC,212318.00,A,5145.4047,N,14.1948,W,7.5,236.6,180718,0.0,E,A*1b
$GPVTG,236.6,T,0.0,M,7.5,N,13.9,K*76
$GPGGA,212318.00,5145.4047,N,14.1948,W,12,12,1.0,93.0,M,0.0,M,0.0,0000*52
$GPGSA,A,3,01,02,03,04,05,06,07,08,09,10,11,12,1.2,1.0,0.6*35
$GPGSV,3,1,12,01,45,045,50,02,45,045,50,03,45,045,50,04,45,045,50*7c
$GPGSV,3,2,12,05,45,045,50,06,45,045,50,07,45,045,50,08,45,045,50*77
$GPGSV,3,3,12,09,45,045,50,10,45,045,50,11,45,045,50,12,45,045,50*71
$GPRMC,212319.00,A,5145.4038,N,14.1976,W,7.5,237.0,180718,0.0,E,A*18
$GPVTG,237.0,T,0.0,M,7.5,N,13.9,K*71
$GPGGA,212319.00,5145.4038,N,14.1976,W,12,12,1.0,92.9,M,0.0,M,0.0,0000*5e
$GPGSA,A,3,01,02,03,04,05,06,07,08,09,10,11,12,1.2,1.0,0.6*35
$GPGSV,3,1,12,01,45,045,50,02,45,045,50,03,45,045,50,04,45,045,50*7c
$GPGSV,3,2,12,05,45,045,50,06,45,045,50,07,45,045,50,08,45,045,50*77
$GPGSV,3,3,12,09,45,045,50,10,45,045,50,11,45,045,50,12,45,045,50*71
$GPRMC,212320.00,A,5145.4026,N,14.2005,W,7.5,237.7,180718,0.0,E,A*14
$GPVTG,237.7,T,0.0,M,7.5,N,13.9,K*76
$GPGGA,212320.00,5145.4026,N,14.2005,W,12,12,1.0,92.8,M,0.0,M,0.0,0000*54
$GPGSA,A,3,01,02,03,04,05,06,07,08,09,10,11,12,1.2,1.0,0.6*35
$GPGSV,3,1,12,01,45,045,50,02,45,045,50,03,45,045,50,04,45,045,50*7c
$GPGSV,3,2,12,05,45,045,50,06,45,045,50,07,45,045,50,08,45,045,50*77
$GPGSV,3,3,12,09,45,045,50,10,45,045,50,11,45,045,50,12,45,045,50*71
$GPRMC,212321.00,A,5145.4014,N,14.2037,W,7.6,237.0,180718,0.0,E,A*11
$GPVTG,237.0,T,0.0,M,7.6,N,14.1,K*7d
$GPGGA,212321.00,5145.4014,N,14.2037,W,12,12,1.0,93.0,M,0.0,M,0.0,0000*5c
$GPGSA,A,3,01,02,03,04,05,06,07,08,09,10,11,12,1.2,1.0,0.6*35
$GPGSV,3,1,12,01,45,045,50,02,45,045,50,03,45,045,50,04,45,045,50*7c
$GPGSV,3,2,12,05,45,045,50,06,45,045,50,07,45,045,50,08,45,045,50*77
$GPGSV,3,3,12,09,45,045,50,10,45,045,50,11,45,045,50,12,45,045,50*71
$GPRMC,212322.00,A,5145.4003,N,14.2066,W,7.9,238.7,180718,0.0,E,A*17
$GPVTG,238.7,T,0.0,M,7.9,N,14.5,K*7e
$GPGGA,212322.00,5145.4003,N,14.2066,W,12,12,1.0,92.8,M,0.0,M,0.0,0000*54
$GPGSA,A,3,01,02,03,04,05,06,07,08,09,10,11,12,1.2,1.0,0.6*35
$GPGSV,3,1,12,01,45,045,50,02,45,045,50,03,45,045,50,04,45,045,50*7c
$GPGSV,3,2,12,05,45,045,50,06,45,045,50,07,45,045,50,08,45,045,50*77
$GPGSV,3,3,12,09,45,045,50,10,45,045,50,11,45,045,50,12,45,045,50*71
$GPRMC,212323.00,A,5145.3995,N,14.2093,W,7.0,244.0,180718,0.0,E,A*18
$GPVTG,244.0,T,0.0,M,7.0,N,13.0,K*79
$GPGGA,212323.00,5145.3995,N,14.2093,W,12,12,1.0,92.6,M,0.0,M,0.0,0000*50
$GPGSA,A,3,01,02,03,04,05,06,07,08,09,10,11,12,1.2,1.0,0.6*35
$GPGSV,3,1,12,01,45,045,50,02,45,045,50,03,45,045,50,04,45,045,50*7c
$GPGSV,3,2,12,05,45,045,50,06,45,045,50,07,45,045,50,08,45,045,50*77
$GPGSV,3,3,12,09,45,045,50,10,45,045,50,11,45,045,50,12,45,045,50*71
$GPRMC,212324.00,A,5145.3988,N,14.2114,W,7.0,238.7,180718,0.0,E,A*11
$GPVTG,238.7,T,0.0,M,7.0,N,13.0,K*75
$GPGGA,212324.00,5145.3988,N,14.2114,W,12,12,1.0,92.6,M,0.0,M,0.0,0000*55
$GPGSA,A,3,01,02,03,04,05,06,07,08,09,10,11,12,1.2,1.0,0.6*35
$GPGSV,3,1,12,01,45,045,50,02,45,045,50,03,45,045,50,04,45,045,50*7c
$GPGSV,3,2,12,05,45,045,50,06,45,045,50,07,45,045,50,08,45,045,50*77
$GPGSV,3,3,12,09,45,045,50,10,45,045,50,11,45,045,50,12,45,045,50*71
$GPRMC,212325.00,A,5145.3984,N,14.2128,W,5.1,246.1,180718,0.0,E,A*1f
$GPVTG,246.1,T,0.0,M,5.1,N,9.5,K*47
$GPGGA,212325.00,5145.3984,N,14.2128,W,12,12,1.0,92.6,M,0.0,M,0.0,0000*57
$GPGSA,A,3,01,02,03,04,05,06,07,08,09,10,11,12,1.2,1.0,0.6*35
$GPGSV,3,1,12,01,45,045,50,02,45,045,50,03,45,045,50,04,45,045,50*7c
$GPGSV,3,2,12,05,45,045,50,06,45,045,50,07,45,045,50,08,45,045,50*77
$GPGSV,3,3,12,09,45,045,50,10,45,045,50,11,45,045,50,12,45,045,50*71
$GPRMC,212326.00,A,5145.3982,N,14.2138,W,3.2,259.5,180718,0.0,E,A*14
$GPVTG,259.5,T,0.0,M,3.2,N,5.9,K*48
$GPGGA,212326.00,5145.3982,N,14.2138,W,12,12,1.0,92.8,M,0.0,M,0.0,0000*5d
$GPGSA,A,3,01,02,03,04,05,06,07,08,09,10,11,12,1.2,1.0,0.6*35
$GPGSV,3,1,12,01,45,045,50,02,45,045,50,03,45,045,50,04,45,045,50*7c
$GPGSV,3,2,12,05,45,045,50,06,45,045,50,07,45,045,50,08,45,045,50*77
$GPGSV,3,3,12,09,45,045,50,10,45,045,50,11,45,045,50,12,45,045,50*71
$GPRMC,212327.00,A,5145.3980,N,14.2156,W,3.2,255.6,180718,0.0,E,A*10
$GPVTG,255.6,T,0.0,M,3.2,N,5.9,K*47
$GPGGA,212327.00,5145.3980,N,14.2156,W,12,12,1.0,92.9,M,0.0,M,0.0,0000*57
$GPGSA,A,3,01,02,03,04,05,06,07,08,09,10,11,12,1.2,1.0,0.6*35
$GPGSV,3,1,12,01,45,045,50,02,45,045,50,03,45,045,50,04,45,045,50*7c
$GPGSV,3,2,12,05,45,045,50,06,45,045,50,07,45,045,50,08,45,045,50*77
$GPGSV,3,3,12,09,45,045,50,10,45,045,50,11,45,045,50,12,45,045,50*71
$GPRMC,212328.00,A,5145.3980,N,14.2180,W,6.0,279.1,180718,0.0,E,A*1a
$GPVTG,279.1,T,0.0,M,6.0,N,11.1,K*74
$GPGGA,212328.00,5145.3980,N,14.2180,W,12,12,1.0,92.9,M,0.0,M,0.0,0000*53
$GPGSA,A,3,01,02,03,04,05,06,07,08,09,10,11,12,1.2,1.0,0.6*35
$GPGSV,3,1,12,01,45,045,50,02,45,045,50,03,45,045,50,04,45,045,50*7c
$GPGSV,3,2,12,05,45,045,50,06,45,045,50,07,45,045,50,08,45,045,50*77
$GPGSV,3,3,12,09,45,045,50,10,45,045,50,11,45,045,50,12,45,045,50*71
$GPRMC,212329.00,A,5145.3991,N,14.2213,W,7.0,304.8,180718,0.0,E,A*11
$GPVTG,304.8,T,0.0,M,7.0,N,13.0,K*74
$GPGGA,212329.00,5145.3991,N,14.2213,W,12,12,1.0,92.7,M,0.0,M,0.0,0000*55
$GPGSA,A,3,01,02,03,04,05,06,07,08,09,10,11,12,1.2,1.0,0.6*35
$GPGSV,3,1,12,01,45,045,50,02,45,045,50,03,45,045,50,04,45,045,50*7c
$GPGSV,3,2,12,05,45,045,50,06,45,045,50,07,45,045,50,08,45,045,50*77
$GPGSV,3,3,12,09,45,045,50,10,45,045,50,11,45,045,50,12,45,045,50*71
$GPRMC,212330.00,A,5145.4007,N,14.2237,W,7.0,330.1,180718,0.0,E,A*10
$GPVTG,330.1,T,0.0,M,7.0,N,13.0,K*7a
$GPGGA,212330.00,5145.4007,N,14.2237,W,12,12,1.0,92.6,M,0.0,M,0.0,0000*5b
$GPGSA,A,3,01,02,03,04,05,06,07,08,09,10,11,12,1.2,1.0,0.6*35
$GPGSV,3,1,12,01,45,045,50,02,45,045,50,03,45,045,50,04,45,045,50*7c
$GPGSV,3,2,12,05,45,045,50,06,45,045,50,07,45,045,50,08,45,045,50*77
$GPGSV,3,3,12,09,45,045,50,10,45,045,50,11,45,045,50,12,45,045,50*71
$GPRMC,212331.00,A,5145.4028,N,14.2260,W,8.4,330.8,180718,0.0,E,A*1c
$GPVTG,330.8,T,0.0,M,8.4,N,15.6,K*78
$GPGGA,212331.00,5145.4028,N,14.2260,W,12,12,1.0,92.8,M,0.0,M,0.0,0000*5b
$GPGSA,A,3,01,02,03,04,05,06,07,08,09,10,11,12,1.2,1.0,0.6*35
$GPGSV,3,1,12,01,45,045,50,02,45,045,50,03,45,045,50,04,45,045,50*7c
$GPGSV,3,2,12,05,45,045,50,06,45,045,50,07,45,045,50,08,45,045,50*77
$GPGSV,3,3,12,09,45,045,50,10,45,045,50,11,45,045,50,12,45,045,50*71
$GPRMC,212332.00,A,5145.4055,N,14.2281,W,8.5,332.6,180718,0.0,E,A*17
$GPVTG,332.6,T,0.0,M,8.5,N,15.7,K*74
$GPGGA,212332.00,5145.4055,N,14.2281,W,12,12,1.0,92.5,M,0.0,M,0.0,0000*50
$GPGSA,A,3,01,02,03,04,05,06,07,08,09,10,11,12,1.2,1.0,0.6*35
$GPGSV,3,1,12,01,45,045,50,02,45,045,50,03,45,045,50,04,45,045,50*7c
$GPGSV,3,2,12,05,45,045,50,06,45,045,50,07,45,045,50,08,45,045,50*77
$GPGSV,3,3,12,09,45,045,50,10,45,045,50,11,45,045,50,12,45,045,50*71
$GPRMC,212333.00,A,5145.4083,N,14.2307,W,11.4,332.6,180718,0.0,E,A*2b
$GPVTG,332.6,T,0.0,M,11.4,N,21.1,K*4c
$GPGGA,212333.00,5145.4083,N,14.2307,W,12,12,1.0,92.4,M,0.0,M,0.0,0000*54
$GPGSA,A,3,01,02,03,04,05,06,07,08,09,10,11,12,1.2,1.0,0.6*35
$GPGSV,3,1,12,01,45,045,50,02,45,045,50,03,45,045,50,04,45,045,50*7c
$GPGSV,3,2,12,05,45,045,50,06,45,045,50,07,45,045,50,08,45,045,50*77
$GPGSV,3,3,12,09,45,045,50,10,45,045,50,11,45,045,50,12,45,045,50*71
$GPRMC,212334.00,A,5145.4115,N,14.2335,W,12.8,337.9,180718,0.0,E,A*26
$GPVTG,337.9,T,0.0,M,12.8,N,23.7,K*4d
$GPGGA,212334.00,5145.4115,N,14.2335,W,12,12,1.0,92.2,M,0.0,M,0.0,0000*5a
$GPGSA,A,3,01,02,03,04,05,06,07,08,09,10,11,12,1.2,1.0,0.6*35
$GPGSV,3,1,12,01,45,045,50,02,45,045,50,03,45,045,50,04,45,045,50*7c
$GPGSV,3,2,12,05,45,045,50,06,45,045,50,07,45,045,50,08,45,045,50*77
$GPGSV,3,3,12,09,45,045,50,10,45,045,50,11,45,045,50,12,45,045,50*71
$GPRMC,212335.00,A,5145.4149,N,14.2363,W,12.8,337.9,180718,0.0,E,A*2d
$GPVTG,337.9,T,0.0,M,12.8,N,23.7,K*4d
$GPGGA,212335.00,5145.4149,N,14.2363,W,12,12,1.0,91.7,M,0.0,M,0.0,0000*57
$GPGSA,A,3,01,02,03,04,05,06,07,08,09,10,11,12,1.2,1.0,0.6*35
$GPGSV,3,1,12,01,45,045,50,02,45,045,50,03,45,045,50,04,45,045,50*7c
$GPGSV,3,2,12,05,45,045,50,06,45,045,50,07,45,045,50,08,45,045,50*77
$GPGSV,3,3,12,09,45,045,50,10,45,045,50,11,45,045,50,12,45,045,50*71
$GPRMC,212336.00,A,5145.4184,N,14.2392,W,13.1,338.2,180718,0.0,E,A*2d
$GPVTG,338.2,T,0.0,M,13.1,N,24.3,K*42
$GPGGA,212336.00,5145.4184,N,14.2392,W,12,12,1.0,91.1,M,0.0,M,0.0,0000*5d
$GPGSA,A,3,01,02,03,04,05,06,07,08,09,10,11,12,1.2,1.0,0.6*35
$GPGSV,3,1,12,01,45,045,50,02,45,045,50,03,45,045,50,04,45,045,50*7c
$GPGSV,3,2,12,05,45,045,50,06,45,045,50,07,45,045,50,08,45,045,50*77
$GPGSV,3,3,12,09,45,045,50,10,45,045,50,11,45,045,50,12,45,045,50*71
$GPRMC,212337.00,A,5145.4223,N,14.2423,W,14.1,334.3,180718,0.0,E,A*25
$GPVTG,334.3,T,0.0,M,14.1,N,26.1,K*48
$GPGGA,212337.00,5145.4223,N,14.2423,W,12,12,1.0,90.6,M,0.0,M,0.0,0000*59
$GPGSA,A,3,01,02,03,04,05,06,07,08,09,10,11,12,1.2,1.0,0.6*35
$GPGSV,3,1,12,01,45,045,50,02,45,045,50,03,45,045,50,04,45,045,50*7c
$GPGSV,3,2,12,05,45,045,50,06,45,045,50,07,45,045,50,08,45,045,50*77
$GPGSV,3,3,12,09,45,045,50,10,45,045,50,11,45,045,50,12,45,045,50*71
$GPRMC,212338.00,A,5145.4262,N,14.2452,W,15.4,338.6,180718,0.0,E,A*24
$GPVTG,338.6,T,0.0,M,15.4,N,28.5,K*4f
$GPGGA,212338.00,5145.4262,N,14.2452,W,12,12,1.0,90.6,M,0.0,M,0.0,0000*55
$GPGSA,A,3,01,02,03,04,05,06,07,08,09,10,11,12,1.2,1.0,0.6*35
$GPGSV,3,1,12,01,45,045,50,02,45,045,50,03,45,045,50,04,45,045,50*7c
$GPGSV,3,2,12,05,45,045,50,06,45,045,50,07,45,045,50,08,45,045,50*77
$GPGSV,3,3,12,09,45,045,50,10,45,045,50,11,45,045,50,12,45,045,50*71
$GPRMC,212339.00,A,5145.4302,N,14.2482,W,16.0,336.1,180718,0.0,E,A*21
$GPVTG,336.1,T,0.0,M,16.0,N,29.6,K*43
$GPGGA,212339.00,5145.4302,N,14.2482,W,12,12,1.0,90.3,M,0.0,M,0.0,0000*5b
$GPGSA,A,3,01,02,03,04,05,06,07,08,09,10,11,12,1.2,1.0,0.6*35
$GPGSV,3,1,12,01,45,045,50,02,45,045,50,03,45,045,50,04,45,045,50*7c
$GPGSV,3,2,12,05,45,045,50,06,45,045,50,07,45,045,50,08,45,045,50*77
$GPGSV,3,3,12,09,45,045,50,10,45,045,50,11,45,045,50,12,45,045,50*71
$GPRMC,212340.00,A,5145.4348,N,14.2516,W,16.0,340.7,180718,0.0,E,A*2a
$GPVTG,340.7,T,0.0,M,16.0,N,29.6,K*44
$GPGGA,212340.00,5145.4348,N,14.2516,W,12,12,1.0,89.8,M,0.0,M,0.0,0000*54
$GPGSA,A,3,01,02,03,04,05,06,07,08,09,10,11,12,1.2,1.0,0.6*35
$GPGSV,3,1,12,01,45,045,50,02,45,045,50,03,45,045,50,04,45,045,50*7c
$GPGSV,3,2,12,05,45,045,50,06,45,045,50,07,45,045,50,08,45,045,50*77
$GPGSV,3,3,12,09,45,045,50,10,45,045,50,11,45,045,50,12,45,045,50*71
$GPRMC,212341.00,A,5145.4390,N,14.2550,W,16.5,338.2,180718,0.0,E,A*23
$GPVTG,338.2,T,0.0,M,16.5,N,30.6,K*43
$GPGGA,212341.00,5145.4390,N,14.2550,W,12,12,1.0,89.8,M,0.0,M,0.0,0000*52
$GPGSA,A,3,01,02,03,04,05,06,07,08,09,10,11,12,1.2,1.0,0.6*35
$GPGSV,3,1,12,01,45,045,50,02,45,045,50,03,45,045,50,04,45,045,50*7c
$GPGSV,3,2,12,05,45,045,50,06,45,045,50,07,45,045,50,08,45,045,50*77
$GPGSV,3,3,12,09,45,045,50,10,45,045,50,11,45,045,50,12,45,045,50*71
