$GPGSA,A,3,01,02,03,04,05,06,07,08,09,10,11,12,3.1,2.0,2.4*37
$GPGSV,3,1,12,01,45,045,50,02,45,045,50,03,45,045,50,04,45,045,50*7c
$GPGSV,3,2,12,05,45,045,50,06,45,045,50,07,45,045,50,08,45,045,50*77
$GPGSV,3,3,12,09,45,045,50,10,45,045,50,11,45,045,50,12,45,045,50*71
$GPRMC,150732.00,A,4611.4009,N,1959.8995,E,-1.9,-1.0,150918,0.0,E,A*0c
$GPVTG,-1.0,T,0.0,M,-1.9,N,-3.6,K*6f
$GPGGA,150732.00,4611.4009,N,1959.8995,E,12,12,2.0,104.0,M,0.0,M,0.0,0000*70
$GPGSA,A,3,01,02,03,04,05,06,07,08,09,10,11,12,2.2,2.0,0.8*3b
$GPGSV,3,1,12,01,45,045,50,02,45,045,50,03,45,045,50,04,45,045,50*7c
$GPGSV,3,2,12,05,45,045,50,06,45,045,50,07,45,045,50,08,45,045,50*77
$GPGSV,3,3,12,09,45,045,50,10,45,045,50,11,45,045,50,12,45,045,50*71
$GPRMC,150733.00,A,4611.4021,N,1959.9036,E,17.9,60.5,150918,0.0,E,A*03
$GPVTG,60.5,T,0.0,M,17.9,N,33.2,K*70
$GPGGA,150733.00,4611.4021,N,1959.9036,E,12,12,2.0,89.9,M,0.0,M,0.0,0000*47
$GPGSA,A,3,01,02,03,04,05,06,07,08,09,10,11,12,1.3,1.0,0.8*3a
$GPGSV,3,1,12,01,45,045,50,02,45,045,50,03,45,045,50,04,45,045,50*7c
$GPGSV,3,2,12,05,45,045,50,06,45,045,50,07,45,045,50,08,45,045,50*77
$GPGSV,3,3,12,09,45,045,50,10,45,045,50,11,45,045,50,12,45,045,50*71
$GPRMC,150734.00,A,4611.4020,N,1959.9110,E,18.1,65.7,150918,0.0,E,A*00
$GPVTG,65.7,T,0.0,M,18.1,N,33.4,K*76
$GPGGA,150734.00,4611.4020,N,1959.9110,E,12,12,1.0,89.3,M,0.0,M,0.0,0000*4d
$GPGSA,A,3,01,02,03,04,05,06,07,08,09,10,11,12,1.3,1.0,0.8*3a
$GPGSV,3,1,12,01,45,045,50,02,45,045,50,03,45,045,50,04,45,045,50*7c
$GPGSV,3,2,12,05,45,045,50,06,45,045,50,07,45,045,50,08,45,045,50*77
$GPGSV,3,3,12,09,45,045,50,10,45,045,50,11,45,045,50,12,45,045,50*71
$GPRMC,150735.00,A,4611.4046,N,1959.9164,E,17.7,74.2,150918,0.0,E,A*0e
$GPVTG,74.2,T,0.0,M,17.7,N,32.7,K*78
$GPGGA,150735.00,4611.4046,N,1959.9164,E,12,12,1.0,89.3,M,0.0,M,0.0,0000*4f
$GPGSA,A,3,01,02,03,04,05,06,07,08,09,10,11,12,1.3,1.0,0.8*3a
$GPGSV,3,1,12,01,45,045,50,02,45,045,50,03,45,045,50,04,45,045,50*7c
$GPGSV,3,2,12,05,45,045,50,06,45,045,50,07,45,045,50,08,45,045,50*77
$GPGSV,3,3,12,09,45,045,50,10,45,045,50,11,45,045,50,12,45,045,50*71
$GPRMC,150736.00,A,4611.4045,N,1959.9230,E,17.4,84.4,150918,0.0,E,A*06
$GPVTG,84.4,T,0.0,M,17.4,N,32.2,K*77
$GPGGA,150736.00,4611.4045,N,1959.9230,E,12,12,1.0,88.8,M,0.0,M,0.0,0000*47
$GPGSA,A,3,01,02,03,04,05,06,07,08,09,10,11,12,1.3,1.0,0.8*3a
$GPGSV,3,1,12,01,45,045,50,02,45,045,50,03,45,045,50,04,45,045,50*7c
$GPGSV,3,2,12,05,45,045,50,06,45,045,50,07,45,045,50,08,45,045,50*77
$GPGSV,3,3,12,09,45,045,50,10,45,045,50,11,45,045,50,12,45,045,50*71
$GPRMC,150737.00,A,4611.4050,N,1959.9295,E,17.6,86.5,150918,0.0,E,A*0d
$GPVTG,86.5,T,0.0,M,17.6,N,32.6,K*72
$GPGGA,150737.00,4611.4050,N,1959.9295,E,12,12,1.0,89.0,M,0.0,M,0.0,0000*44
$GPGSA,A,3,01,02,03,04,05,06,07,08,09,10,11,12,1.3,1.0,0.8*3a
$GPGSV,3,1,12,01,45,045,50,02,45,045,50,03,45,045,50,04,45,045,50*7c
$GPGSV,3,2,12,05,45,045,50,06,45,045,50,07,45,045,50,08,45,045,50*77
$GPGSV,3,3,12,09,45,045,50,10,45,045,50,11,45,045,50,12,45,045,50*71
$GPRMC,150738.00,A,4611.3998,N,1959.9360,E,17.2,110.4,150918,0.0,E,A*38
$GPVTG,110.4,T,0.0,M,17.2,N,31.8,K*44
$GPGGA,150738.00,4611.3998,N,1959.9360,E,12,12,1.0,88.0,M,0.0,M,0.0,0000*4b
$GPGSA,A,3,01,02,03,04,05,06,07,08,09,10,11,12,1.2,1.0,0.6*35
$GPGSV,3,1,12,01,45,045,50,02,45,045,50,03,45,045,50,04,45,045,50*7c
$GPGSV,3,2,12,05,45,045,50,06,45,045,50,07,45,045,50,08,45,045,50*77
$GPGSV,3,3,12,09,45,045,50,10,45,045,50,11,45,045,50,12,45,045,50*71
$GPRMC,150739.00,A,4611.3966,N,1959.9425,E,17.8,118.8,150918,0.0,E,A*30
$GPVTG,118.8,T,0.0,M,17.8,N,32.9,K*48
$GPGGA,150739.00,4611.3966,N,1959.9425,E,12,12,1.0,87.6,M,0.0,M,0.0,0000*44
$GPGSA,A,3,01,02,03,04,05,06,07,08,09,10,11,12,1.2,1.0,0.6*35
$GPGSV,3,1,12,01,45,045,50,02,45,045,50,03,45,045,50,04,45,045,50*7c
$GPGSV,3,2,12,05,45,045,50,06,45,045,50,07,45,045,50,08,45,045,50*77
$GPGSV,3,3,12,09,45,045,50,10,45,045,50,11,45,045,50,12,45,045,50*71
$GPRMC,150740.00,A,4611.3928,N,1959.9462,E,16.8,136.1,150918,0.0,E,A*33
$GPVTG,136.1,T,0.0,M,16.8,N,31.0,K*46
$GPGGA,150740.00,4611.3928,N,1959.9462,E,12,12,1.0,87.2,M,0.0,M,0.0,0000*47
$GPGSA,A,3,01,02,03,04,05,06,07,08,09,10,11,12,1.2,1.0,0.6*35
$GPGSV,3,1,12,01,45,045,50,02,45,045,50,03,45,045,50,04,45,045,50*7c
$GPGSV,3,2,12,05,45,045,50,06,45,045,50,07,45,045,50,08,45,045,50*77
$GPGSV,3,3,12,09,45,045,50,10,45,045,50,11,45,045,50,12,45,045,50*71
$GPRMC,150741.00,A,4611.3889,N,1959.9507,E,17.4,140.6,150918,0.0,E,A*31
$GPVTG,140.6,T,0.0,M,17.4,N,32.1,K*4f
$GPGGA,150741.00,4611.3889,N,1959.9507,E,12,12,1.0,86.6,M,0.0,M,0.0,0000*4b
$GPGSA,A,3,01,02,03,04,05,06,07,08,09,10,11,12,1.3,1.0,0.8*3a
$GPGSV,3,1,12,01,45,045,50,02,45,045,50,03,45,045,50,04,45,045,50*7c
$GPGSV,3,2,12,05,45,045,50,06,45,045,50,07,45,045,50,08,45,045,50*77
$GPGSV,3,3,12,09,45,045,50,10,45,045,50,11,45,045,50,12,45,045,50*71
$GPRMC,150742.00,A,4611.3847,N,1959.9534,E,17.6,148.7,150918,0.0,E,A*3b
$GPVTG,148.7,T,0.0,M,17.6,N,32.6,K*43
$GPGGA,150742.00,4611.3847,N,1959.9534,E,12,12,1.0,86.6,M,0.0,M,0.0,0000*4a
$GPGSA,A,3,01,02,03,04,05,06,07,08,09,10,11,12,1.3,1.0,0.8*3a
$GPGSV,3,1,12,01,45,045,50,02,45,045,50,03,45,045,50,04,45,045,50*7c
$GPGSV,3,2,12,05,45,045,50,06,45,045,50,07,45,045,50,08,45,045,50*77
$GPGSV,3,3,12,09,45,045,50,10,45,045,50,11,45,045,50,12,45,045,50*71
$GPRMC,150743.00,A,4611.3809,N,1959.9564,E,17.0,151.9,150918,0.0,E,A*35
$GPVTG,151.9,T,0.0,M,17.0,N,31.5,K*43
$GPGGA,150743.00,4611.3809,N,1959.9564,E,12,12,1.0,86.2,M,0.0,M,0.0,0000*40
$GPGSA,A,3,01,02,03,04,05,06,07,08,09,10,11,12,1.3,1.0,0.8*3a
$GPGSV,3,1,12,01,45,045,50,02,45,045,50,03,45,045,50,04,45,045,50*7c
$GPGSV,3,2,12,05,45,045,50,06,45,045,50,07,45,045,50,08,45,045,50*77
$GPGSV,3,3,12,09,45,045,50,10,45,045,50,11,45,045,50,12,45,045,50*71
$GPRMC,150744.00,A,4611.3766,N,1959.9593,E,17.2,154.7,150918,0.0,E,A*35
$GPVTG,154.7,T,0.0,M,17.2,N,31.9,K*46
$GPGGA,150744.00,4611.3766,N,1959.9593,E,12,12,1.0,86.2,M,0.0,M,0.0,0000*49
$GPGSA,A,3,01,02,03,04,05,06,07,08,09,10,11,12,1.3,1.0,0.8*3a
$GPGSV,3,1,12,01,45,045,50,02,45,045,50,03,45,045,50,04,45,045,50*7c
$GPGSV,3,2,12,05,45,045,50,06,45,045,50,07,45,045,50,08,45,045,50*77
$GPGSV,3,3,12,09,45,045,50,10,45,045,50,11,45,045,50,12,45,045,50*71
$GPRMC,150745.00,A,4611.3718,N,1959.9625,E,17.9,154.7,150918,0.0,E,A*38
$GPVTG,154.7,T,0.0,M,17.9,N,33.2,K*44
$GPGGA,150745.00,4611.3718,N,1959.9625,E,12,12,1.0,86.2,M,0.0,M,0.0,0000*4f
$GPGSA,A,3,01,02,03,04,05,06,07,08,09,10,11,12,1.3,1.0,0.8*3a
$GPGSV,3,1,12,01,45,045,50,02,45,045,50,03,45,045,50,04,45,045,50*7c
$GPGSV,3,2,12,05,45,045,50,06,45,045,50,07,45,045,50,08,45,045,50*77
$GPGSV,3,3,12,09,45,045,50,10,45,045,50,11,45,045,50,12,45,045,50*71
$GPRMC,150746.00,A,4611.3671,N,1959.9650,E,18.1,158.2,150918,0.0,E,A*39
$GPVTG,158.2,T,0.0,M,18.1,N,33.6,K*4e
$GPGGA,150746.00,4611.3671,N,1959.9650,E,12,12,1.0,86.0,M,0.0,M,0.0,0000*42
$GPGSA,A,3,01,02,03,04,05,06,07,08,09,10,11,12,1.3,1.0,0.8*3a
$GPGSV,3,1,12,01,45,045,50,02,45,045,50,03,45,045,50,04,45,045,50*7c
$GPGSV,3,2,12,05,45,045,50,06,45,045,50,07,45,045,50,08,45,045,50*77
$GPGSV,3,3,12,09,45,045,50,10,45,045,50,11,45,045,50,12,45,045,50*71
$GPRMC,150747.00,A,4611.3621,N,1959.9684,E,18.6,157.9,150918,0.0,E,A*37
$GPVTG,157.9,T,0.0,M,18.6,N,34.5,K*49
$GPGGA,150747.00,4611.3621,N,1959.9684,E,12,12,1.0,85.3,M,0.0,M,0.0,0000*4f
$GPGSA,A,3,01,02,03,04,05,06,07,08,09,10,11,12,1.2,1.0,0.6*35
$GPGSV,3,1,12,01,45,045,50,02,45,045,50,03,45,045,50,04,45,045,50*7c
$GPGSV,3,2,12,05,45,045,50,06,45,045,50,07,45,045,50,08,45,045,50*77
$GPGSV,3,3,12,09,45,045,50,10,45,045,50,11,45,045,50,12,45,045,50*71
$GPRMC,150748.00,A,4611.3573,N,1959.9709,E,18.6,157.1,150918,0.0,E,A*30
$GPVTG,157.1,T,0.0,M,18.6,N,34.5,K*41
$GPGGA,150748.00,4611.3573,N,1959.9709,E,12,12,1.0,85.4,M,0.0,M,0.0,0000*47
$GPGSA,A,3,01,02,03,04,05,06,07,08,09,10,11,12,1.2,1.0,0.6*35
$GPGSV,3,1,12,01,45,045,50,02,45,045,50,03,45,045,50,04,45,045,50*7c
$GPGSV,3,2,12,05,45,045,50,06,45,045,50,07,45,045,50,08,45,045,50*77
$GPGSV,3,3,12,09,45,045,50,10,45,045,50,11,45,045,50,12,45,045,50*71
$GPRMC,150749.00,A,4611.3517,N,1959.9748,E,19.0,157.1,150918,0.0,E,A*31
$GPVTG,157.1,T,0.0,M,19.0,N,35.2,K*40
$GPGGA,150749.00,4611.3517,N,1959.9748,E,12,12,1.0,84.9,M,0.0,M,0.0,0000*4d
$GPGSA,A,3,01,02,03,04,05,06,07,08,09,10,11,12,1.2,1.0,0.6*35
$GPGSV,3,1,12,01,45,045,50,02,45,045,50,03,45,045,50,04,45,045,50*7c
$GPGSV,3,2,12,05,45,045,50,06,45,045,50,07,45,045,50,08,45,045,50*77
$GPGSV,3,3,12,09,45,045,50,10,45,045,50,11,45,045,50,12,45,045,50*71
$GPRMC,150750.00,A,4611.3468,N,1959.9776,E,18.8,156.4,150918,0.0,E,A*30
$GPVTG,156.4,T,0.0,M,18.8,N,34.8,K*46
$GPGGA,150750.00,4611.3468,N,1959.9776,E,12,12,1.0,84.4,M,0.0,M,0.0,0000*4c
$GPGSA,A,3,01,02,03,04,05,06,07,08,09,10,11,12,1.2,1.0,0.6*35
$GPGSV,3,1,12,01,45,045,50,02,45,045,50,03,45,045,50,04,45,045,50*7c
$GPGSV,3,2,12,05,45,045,50,06,45,045,50,07,45,045,50,08,45,045,50*77
$GPGSV,3,3,12,09,45,045,50,10,45,045,50,11,45,045,50,12,45,045,50*71
$GPRMC,150751.00,A,4611.3414,N,1959.9803,E,19.4,157.1,150918,0.0,E,A*3e
$GPVTG,157.1,T,0.0,M,19.4,N,36.0,K*45
$GPGGA,150751.00,4611.3414,N,1959.9803,E,12,12,1.0,83.7,M,0.0,M,0.0,0000*4f
$GPGSA,A,3,01,02,03,04,05,06,07,08,09,10,11,12,1.2,1.0,0.6*35
$GPGSV,3,1,12,01,45,045,50,02,45,045,50,03,45,045,50,04,45,045,50*7c
$GPGSV,3,2,12,05,45,045,50,06,45,045,50,07,45,045,50,08,45,045,50*77
$GPGSV,3,3,12,09,45,045,50,10,45,045,50,11,45,045,50,12,45,045,50*71
$GPRMC,150752.00,A,4611.3369,N,1959.9828,E,19.6,156.4,150918,0.0,E,A*3f
$GPVTG,156.4,T,0.0,M,19.6,N,36.3,K*40
$GPGGA,150752.00,4611.3369,N,1959.9828,E,12,12,1.0,83.1,M,0.0,M,0.0,0000*4e
$GPGSA,A,3,01,02,03,04,05,06,07,08,09,10,11,12,1.2,1.0,0.6*35
$GPGSV,3,1,12,01,45,045,50,02,45,045,50,03,45,045,50,04,45,045,50*7c
$GPGSV,3,2,12,05,45,045,50,06,45,045,50,07,45,045,50,08,45,045,50*77
$GPGSV,3,3,12,09,45,045,50,10,45,045,50,11,45,045,50,12,45,045,50*71
$GPRMC,150753.00,A,4611.3312,N,1959.9865,E,19.9,156.8,150918,0.0,E,A*38
$GPVTG,156.8,T,0.0,M,19.9,N,36.9,K*49
$GPGGA,150753.00,4611.3312,N,1959.9865,E,12,12,1.0,82.6,M,0.0,M,0.0,0000*4c
$GPGSA,A,3,01,02,03,04,05,06,07,08,09,10,11,12,1.2,1.0,0.6*35
$GPGSV,3,1,12,01,45,045,50,02,45,045,50,03,45,045,50,04,45,045,50*7c
$GPGSV,3,2,12,05,45,045,50,06,45,045,50,07,45,045,50,08,45,045,50*77
$GPGSV,3,3,12,09,45,045,50,10,45,045,50,11,45,045,50,12,45,045,50*71
$GPRMC,150754.00,A,4611.3266,N,1959.9888,E,19.7,157.5,150918,0.0,E,A*3c
$GPVTG,157.5,T,0.0,M,19.7,N,36.6,K*44
$GPGGA,150754.00,4611.3266,N,1959.9888,E,12,12,1.0,82.5,M,0.0,M,0.0,0000*49
$GPGSA,A,3,01,02,03,04,05,06,07,08,09,10,11,12,1.2,1.0,0.6*35
$GPGSV,3,1,12,01,45,045,50,02,45,045,50,03,45,045,50,04,45,045,50*7c
$GPGSV,3,2,12,05,45,045,50,06,45,045,50,07,45,045,50,08,45,045,50*77
$GPGSV,3,3,12,09,45,045,50,10,45,045,50,11,45,045,50,12,45,045,50*71
$GPRMC,150755.00,A,4611.3216,N,1959.9918,E,20.2,157.9,150918,0.0,E,A*31
$GPVTG,157.9,T,0.0,M,20.2,N,37.5,K*45
$GPGGA,150755.00,4611.3216,N,1959.9918,E,12,12,1.0,82.5,M,0.0,M,0.0,0000*47
$GPGSA,A,3,01,02,03,04,05,06,07,08,09,10,11,12,1.2,1.0,0.6*35
$GPGSV,3,1,12,01,45,045,50,02,45,045,50,03,45,045,50,04,45,045,50*7c
$GPGSV,3,2,12,05,45,045,50,06,45,045,50,07,45,045,50,08,45,045,50*77
$GPGSV,3,3,12,09,45,045,50,10,45,045,50,11,45,045,50,12,45,045,50*71
$GPRMC,150756.00,A,4611.3165,N,1959.9951,E,20.5,157.5,150918,0.0,E,A*33
$GPVTG,157.5,T,0.0,M,20.5,N,38.0,K*44
$GPGGA,150756.00,4611.3165,N,1959.9951,E,12,12,1.0,81.9,M,0.0,M,0.0,0000*41
$GPGSA,A,3,01,02,03,04,05,06,07,08,09,10,11,12,1.2,1.0,0.6*35
$GPGSV,3,1,12,01,45,045,50,02,45,045,50,03,45,045,50,04,45,045,50*7c
$GPGSV,3,2,12,05,45,045,50,06,45,045,50,07,45,045,50,08,45,045,50*77
$GPGSV,3,3,12,09,45,045,50,10,45,045,50,11,45,045,50,12,45,045,50*71
$GPRMC,150757.00,A,4611.3117,N,1959.9985,E,20.6,156.8,150918,0.0,E,A*31
$GPVTG,156.8,T,0.0,M,20.6,N,38.2,K*49
$GPGGA,150757.00,4611.3117,N,1959.9985,E,12,12,1.0,82.0,M,0.0,M,0.0,0000*46
$GPGSA,A,3,01,02,03,04,05,06,07,08,09,10,11,12,1.2,1.0,0.6*35
$GPGSV,3,1,12,01,45,045,50,02,45,045,50,03,45,045,50,04,45,045,50*7c
$GPGSV,3,2,12,05,45,045,50,06,45,045,50,07,45,045,50,08,45,045,50*77
$GPGSV,3,3,12,09,45,045,50,10,45,045,50,11,45,045,50,12,45,045,50*71
$GPRMC,150758.00,A,4611.3068,N,2000.0020,E,20.8,156.4,150918,0.0,E,A*3c
$GPVTG,156.4,T,0.0,M,20.8,N,38.6,K*4f
$GPGGA,150758.00,4611.3068,N,2000.0020,E,12,12,1.0,82.2,M,0.0,M,0.0,0000*4b
$GPGSA,A,3,01,02,03,04,05,06,07,08,09,10,11,12,1.2,1.0,0.6*35
$GPGSV,3,1,12,01,45,045,50,02,45,045,50,03,45,045,50,04,45,045,50*7c
$GPGSV,3,2,12,05,45,045,50,06,45,045,50,07,45,045,50,08,45,045,50*77
$GPGSV,3,3,12,09,45,045,50,10,45,045,50,11,45,045,50,12,45,045,50*71
$GPRMC,150759.00,A,4611.3015,N,2000.0053,E,21.6,156.8,150918,0.0,E,A*30
$GPVTG,156.8,T,0.0,M,21.6,N,40.0,K*45
$GPGGA,150759.00,4611.3015,N,2000.0053,E,12,12,1.0,82.0,M,0.0,M,0.0,0000*46
$GPGSA,A,3,01,02,03,04,05,06,07,08,09,10,11,12,1.2,1.0,0.6*35
$GPGSV,3,1,12,01,45,045,50,02,45,045,50,03,45,045,50,04,45,045,50*7c
$GPGSV,3,2,12,05,45,045,50,06,45,045,50,07,45,045,50,08,45,045,50*77
$GPGSV,3,3,12,09,45,045,50,10,45,045,50,11,45,045,50,12,45,045,50*71
$GPRMC,150800.00,A,4611.2955,N,2000.0086,E,21.8,157.5,150918,0.0,E,A*35
$GPVTG,157.5,T,0.0,M,21.8,N,40.4,K*43
$GPGGA,150800.00,4611.2955,N,2000.0086,E,12,12,1.0,82.4,M,0.0,M,0.0,0000*45
$GPGSA,A,3,01,02,03,04,05,06,07,08,09,10,11,12,1.2,1.0,0.6*35
$GPGSV,3,1,12,01,45,045,50,02,45,045,50,03,45,045,50,04,45,045,50*7c
$GPGSV,3,2,12,05,45,045,50,06,45,045,50,07,45,045,50,08,45,045,50*77
$GPGSV,3,3,12,09,45,045,50,10,45,045,50,11,45,045,50,12,45,045,50*71
$GPRMC,150801.00,A,4611.2885,N,2000.0108,E,22.3,158.9,150918,0.0,E,A*34
$GPVTG,158.9,T,0.0,M,22.3,N,41.2,K*4f
$GPGGA,150801.00,4611.2885,N,2000.0108,E,12,12,1.0,82.7,M,0.0,M,0.0,0000*4c
$GPGSA,A,3,01,02,03,04,05,06,07,08,09,10,11,12,1.2,1.0,0.6*35
$GPGSV,3,1,12,01,45,045,50,02,45,045,50,03,45,045,50,04,45,045,50*7c
$GPGSV,3,2,12,05,45,045,50,06,45,045,50,07,45,045,50,08,45,045,50*77
$GPGSV,3,3,12,09,45,045,50,10,45,045,50,11,45,045,50,12,45,045,50*71
$GPRMC,150802.00,A,4611.2827,N,2000.0143,E,22.2,157.5,150918,0.0,E,A*32
$GPVTG,157.5,T,0.0,M,22.2,N,41.1,K*4e
$GPGGA,150802.00,4611.2827,N,2000.0143,E,12,12,1.0,82.3,M,0.0,M,0.0,0000*4c
$GPGSA,A,3,01,02,03,04,05,06,07,08,09,10,11,12,1.2,1.0,0.6*35
$GPGSV,3,1,12,01,45,045,50,02,45,045,50,03,45,045,50,04,45,045,50*7c
$GPGSV,3,2,12,05,45,045,50,06,45,045,50,07,45,045,50,08,45,045,50*77
$GPGSV,3,3,12,09,45,045,50,10,45,045,50,11,45,045,50,12,45,045,50*71
$GPRMC,150803.00,A,4611.2776,N,2000.0174,E,22.5,157.1,150918,0.0,E,A*3f
$GPVTG,157.1,T,0.0,M,22.5,N,41.8,K*44
$GPGGA,150803.00,4611.2776,N,2000.0174,E,12,12,1.0,81.6,M,0.0,M,0.0,0000*44
$GPGSA,A,3,01,02,03,04,05,06,07,08,09,10,11,12,1.2,1.0,0.6*35
$GPGSV,3,1,12,01,45,045,50,02,45,045,50,03,45,045,50,04,45,045,50*7c
$GPGSV,3,2,12,05,45,045,50,06,45,045,50,07,45,045,50,08,45,045,50*77
$GPGSV,3,3,12,09,45,045,50,10,45,045,50,11,45,045,50,12,45,045,50*71
$GPRMC,150804.00,A,4611.2724,N,2000.0212,E,22.6,157.1,150918,0.0,E,A*3f
$GPVTG,157.1,T,0.0,M,22.6,N,41.8,K*47
$GPGGA,150804.00,4611.2724,N,2000.0212,E,12,12,1.0,81.0,M,0.0,M,0.0,0000*41
$GPGSA,A,3,01,02,03,04,05,06,07,08,09,10,11,12,1.2,1.0,0.6*35
$GPGSV,3,1,12,01,45,045,50,02,45,045,50,03,45,045,50,04,45,045,50*7c
$GPGSV,3,2,12,05,45,045,50,06,45,045,50,07,45,045,50,08,45,045,50*77
$GPGSV,3,3,12,09,45,045,50,10,45,045,50,11,45,045,50,12,45,045,50*71
$GPRMC,150805.00,A,4611.2662,N,2000.0253,E,23.6,156.4,150918,0.0,E,A*3d
$GPVTG,156.4,T,0.0,M,23.6,N,43.7,K*4f
$GPGGA,150805.00,4611.2662,N,2000.0253,E,12,12,1.0,80.3,M,0.0,M,0.0,0000*44
$GPGSA,A,3,01,02,03,04,05,06,07,08,09,10,11,12,1.2,1.0,0.6*35
$GPGSV,3,1,12,01,45,045,50,02,45,045,50,03,45,045,50,04,45,045,50*7c
$GPGSV,3,2,12,05,45,045,50,06,45,045,50,07,45,045,50,08,45,045,50*77
$GPGSV,3,3,12,09,45,045,50,10,45,045,50,11,45,045,50,12,45,045,50*71
$GPRMC,150806.00,A,4611.2604,N,2000.0291,E,23.7,155.4,150918,0.0,E,A*32
$GPVTG,155.4,T,0.0,M,23.7,N,43.9,K*43
$GPGGA,150806.00,4611.2604,N,2000.0291,E,12,12,1.0,79.4,M,0.0,M,0.0,0000*48
$GPGSA,A,3,01,02,03,04,05,06,07,08,09,10,11,12,1.2,1.0,0.6*35
$GPGSV,3,1,12,01,45,045,50,02,45,045,50,03,45,045,50,04,45,045,50*7c
$GPGSV,3,2,12,05,45,045,50,06,45,045,50,07,45,045,50,08,45,045,50*77
$GPGSV,3,3,12,09,45,045,50,10,45,045,50,11,45,045,50,12,45,045,50*71
$GPRMC,150807.00,A,4611.2544,N,2000.0333,E,24.1,153.6,150918,0.0,E,A*38
$GPVTG,153.6,T,0.0,M,24.1,N,44.6,K*4e
$GPGGA,150807.00,4611.2544,N,2000.0333,E,12,12,1.0,79.7,M,0.0,M,0.0,0000*44
$GPGSA,A,3,01,02,03,04,05,06,07,08,09,10,11,12,1.2,1.0,0.6*35
$GPGSV,3,1,12,01,45,045,50,02,45,045,50,03,45,045,50,04,45,045,50*7c
$GPGSV,3,2,12,05,45,045,50,06,45,045,50,07,45,045,50,08,45,045,50*77
$GPGSV,3,3,12,09,45,045,50,10,45,045,50,11,45,045,50,12,45,045,50*71
$GPRMC,150808.00,A,4611.2479,N,2000.0378,E,24.2,151.9,150918,0.0,E,A*39
$GPVTG,151.9,T,0.0,M,24.2,N,44.9,K*4f
$GPGGA,150808.00,4611.2479,N,2000.0378,E,12,12,1.0,79.5,M,0.0,M,0.0,0000*49
$GPGSA,A,3,01,02,03,04,05,06,07,08,09,10,11,12,1.2,1.0,0.6*35
$GPGSV,3,1,12,01,45,045,50,02,45,045,50,03,45,045,50,04,45,045,50*7c
$GPGSV,3,2,12,05,45,045,50,06,45,045,50,07,45,045,50,08,45,045,50*77
$GPGSV,3,3,12,09,45,045,50,10,45,045,50,11,45,045,50,12,45,045,50*71
$GPRMC,150809.00,A,4611.2423,N,2000.0426,E,24.3,149.4,150918,0.0,E,A*3e
$GPVTG,149.4,T,0.0,M,24.3,N,45.0,K*42
$GPGGA,150809.00,4611.2423,N,2000.0426,E,12,12,1.0,79.3,M,0.0,M,0.0,0000*4d
$GPGSA,A,3,01,02,03,04,05,06,07,08,09,10,11,12,1.2,1.0,0.6*35
$GPGSV,3,1,12,01,45,045,50,02,45,045,50,03,45,045,50,04,45,045,50*7c
$GPGSV,3,2,12,05,45,045,50,06,45,045,50,07,45,045,50,08,45,045,50*77
$GPGSV,3,3,12,09,45,045,50,10,45,045,50,11,45,045,50,12,45,045,50*71
$GPRMC,150810.00,A,4611.2370,N,2000.0479,E,24.6,147.7,150918,0.0,E,A*35
$GPVTG,147.7,T,0.0,M,24.6,N,45.6,K*4c
$GPGGA,150810.00,4611.2370,N,2000.0479,E,12,12,1.0,78.9,M,0.0,M,0.0,0000*45
$GPGSA,A,3,01,02,03,04,05,06,07,08,09,10,11,12,1.2,1.0,0.6*35
$GPGSV,3,1,12,01,45,045,50,02,45,045,50,03,45,045,50,04,45,045,50*7c
$GPGSV,3,2,12,05,45,045,50,06,45,045,50,07,45,045,50,08,45,045,50*77
$GPGSV,3,3,12,09,45,045,50,10,45,045,50,11,45,045,50,12,45,045,50*71
$GPRMC,150811.00,A,4611.2313,N,2000.0539,E,24.9,145.9,150918,0.0,E,A*37
$GPVTG,145.9,T,0.0,M,24.9,N,46.1,K*4b
$GPGGA,150811.00,4611.2313,N,2000.0539,E,12,12,1.0,78.5,M,0.0,M,0.0,0000*48
$GPGSA,A,3,01,02,03,04,05,06,07,08,09,10,11,12,1.2,1.0,0.6*35
$GPGSV,3,1,12,01,45,045,50,02,45,045,50,03,45,045,50,04,45,045,50*7c
$GPGSV,3,2,12,05,45,045,50,06,45,045,50,07,45,045,50,08,45,045,50*77
$GPGSV,3,3,12,09,45,045,50,10,45,045,50,11,45,045,50,12,45,045,50*71
$GPRMC,150812.00,A,4611.2252,N,2000.0594,E,25.2,144.5,150918,0.0,E,A*30
$GPVTG,144.5,T,0.0,M,25.2,N,46.7,K*4a
$GPGGA,150812.00,4611.2252,N,2000.0594,E,12,12,1.0,78.1,M,0.0,M,0.0,0000*4c
$GPGSA,A,3,01,02,03,04,05,06,07,08,09,10,11,12,1.2,1.0,0.6*35
$GPGSV,3,1,12,01,45,045,50,02,45,045,50,03,45,045,50,04,45,045,50*7c
$GPGSV,3,2,12,05,45,045,50,06,45,045,50,07,45,045,50,08,45,045,50*77
$GPGSV,3,3,12,09,45,045,50,10,45,045,50,11,45,045,50,12,45,045,50*71
$GPRMC,150813.00,A,4611.2197,N,2000.0655,E,25.6,142.7,150918,0.0,E,A*35
$GPVTG,142.7,T,0.0,M,25.6,N,47.4,K*48
$GPGGA,150813.00,4611.2197,N,2000.0655,E,12,12,1.0,78.5,M,0.0,M,0.0,0000*4d
$GPGSA,A,3,01,02,03,04,05,06,07,08,09,10,11,12,1.2,1.0,0.6*35
$GPGSV,3,1,12,01,45,045,50,02,45,045,50,03,45,045,50,04,45,045,50*7c
$GPGSV,3,2,12,05,45,045,50,06,45,045,50,07,45,045,50,08,45,045,50*77
$GPGSV,3,3,12,09,45,045,50,10,45,045,50,11,45,045,50,12,45,045,50*71
$GPRMC,150814.00,A,4611.2141,N,2000.0722,E,25.9,140.3,150918,0.0,E,A*31
$GPVTG,140.3,T,0.0,M,25.9,N,48.0,K*4a
$GPGGA,150814.00,4611.2141,N,2000.0722,E,12,12,1.0,79.0,M,0.0,M,0.0,0000*44
$GPGSA,A,3,01,02,03,04,05,06,07,08,09,10,11,12,1.2,1.0,0.6*35
$GPGSV,3,1,12,01,45,045,50,02,45,045,50,03,45,045,50,04,45,045,50*7c
$GPGSV,3,2,12,05,45,045,50,06,45,045,50,07,45,045,50,08,45,045,50*77
$GPGSV,3,3,12,09,45,045,50,10,45,045,50,11,45,045,50,12,45,045,50*71
$GPRMC,150815.00,A,4611.2088,N,2000.0790,E,26.1,137.8,150918,0.0,E,A*3d
$GPVTG,137.8,T,0.0,M,26.1,N,48.3,K*49
$GPGGA,150815.00,4611.2088,N,2000.0790,E,12,12,1.0,79.1,M,0.0,M,0.0,0000*49
$GPGSA,A,3,01,02,03,04,05,06,07,08,09,10,11,12,1.2,1.0,0.6*35
$GPGSV,3,1,12,01,45,045,50,02,45,045,50,03,45,045,50,04,45,045,50*7c
$GPGSV,3,2,12,05,45,045,50,06,45,045,50,07,45,045,50,08,45,045,50*77
$GPGSV,3,3,12,09,45,045,50,10,45,045,50,11,45,045,50,12,45,045,50*71
$GPRMC,150816.00,A,4611.2031,N,2000.0863,E,26.3,136.8,150918,0.0,E,A*3c
$GPVTG,136.8,T,0.0,M,26.3,N,48.8,K*41
$GPGGA,150816.00,4611.2031,N,2000.0863,E,12,12,1.0,78.9,M,0.0,M,0.0,0000*42
$GPGSA,A,3,01,02,03,04,05,06,07,08,09,10,11,12,1.2,1.0,0.6*35
$GPGSV,3,1,12,01,45,045,50,02,45,045,50,03,45,045,50,04,45,045,50*7c
$GPGSV,3,2,12,05,45,045,50,06,45,045,50,07,45,045,50,08,45,045,50*77
$GPGSV,3,3,12,09,45,045,50,10,45,045,50,11,45,045,50,12,45,045,50*71
$GPRMC,150817.00,A,4611.1978,N,2000.0939,E,26.6,135.0,150918,0.0,E,A*3a
$GPVTG,135.0,T,0.0,M,26.6,N,49.3,K*45
$GPGGA,150817.00,4611.1978,N,2000.0939,E,12,12,1.0,79.2,M,0.0,M,0.0,0000*40
$GPGSA,A,3,01,02,03,04,05,06,07,08,09,10,11,12,1.2,1.0,0.6*35
$GPGSV,3,1,12,01,45,045,50,02,45,045,50,03,45,045,50,04,45,045,50*7c
$GPGSV,3,2,12,05,45,045,50,06,45,045,50,07,45,045,50,08,45,045,50*77
$GPGSV,3,3,12,09,45,045,50,10,45,045,50,11,45,045,50,12,45,045,50*71
$GPRMC,150818.00,A,4611.1929,N,2000.1015,E,26.9,132.2,150918,0.0,E,A*3d
$GPVTG,132.2,T,0.0,M,26.9,N,49.8,K*44
$GPGGA,150818.00,4611.1929,N,2000.1015,E,12,12,1.0,79.4,M,0.0,M,0.0,0000*4b
$GPGSA,A,3,01,02,03,04,05,06,07,08,09,10,11,12,1.2,1.0,0.6*35
$GPGSV,3,1,12,01,45,045,50,02,45,045,50,03,45,045,50,04,45,045,50*7c
$GPGSV,3,2,12,05,45,045,50,06,45,045,50,07,45,045,50,08,45,045,50*77
$GPGSV,3,3,12,09,45,045,50,10,45,045,50,11,45,045,50,12,45,045,50*71
$GPRMC,150819.00,A,4611.1884,N,2000.1096,E,27.0,130.4,150918,0.0,E,A*3d
$GPVTG,130.4,T,0.0,M,27.0,N,50.0,K*48
$GPGGA,150819.00,4611.1884,N,2000.1096,E,12,12,1.0,78.1,M,0.0,M,0.0,0000*43
$GPGSA,A,3,01,02,03,04,05,06,07,08,09,10,11,12,1.2,1.0,0.6*35
$GPGSV,3,1,12,01,45,045,50,02,45,045,50,03,45,045,50,04,45,045,50*7c
$GPGSV,3,2,12,05,45,045,50,06,45,045,50,07,45,045,50,08,45,045,50*77
$GPGSV,3,3,12,09,45,045,50,10,45,045,50,11,45,045,50,12,45,045,50*71
$GPRMC,150820.00,A,4611.1839,N,2000.1178,E,27.4,129.4,150918,0.0,E,A*3c
$GPVTG,129.4,T,0.0,M,27.4,N,50.8,K*4c
$GPGGA,150820.00,4611.1839,N,2000.1178,E,12,12,1.0,77.9,M,0.0,M,0.0,0000*49
$GPGSA,A,3,01,02,03,04,05,06,07,08,09,10,11,12,1.2,1.0,0.6*35
$GPGSV,3,1,12,01,45,045,50,02,45,045,50,03,45,045,50,04,45,045,50*7c
$GPGSV,3,2,12,05,45,045,50,06,45,045,50,07,45,045,50,08,45,045,50*77
$GPGSV,3,3,12,09,45,045,50,10,45,045,50,11,45,045,50,12,45,045,50*71
$GPRMC,150821.00,A,4611.1790,N,2000.1264,E,27.5,128.7,150918,0.0,E,A*3c
$GPVTG,128.7,T,0.0,M,27.5,N,51.0,K*46
$GPGGA,150821.00,4611.1790,N,2000.1264,E,12,12,1.0,78.0,M,0.0,M,0.0,0000*4c
$GPGSA,A,3,01,02,03,04,05,06,07,08,09,10,11,12,1.2,1.0,0.6*35
$GPGSV,3,1,12,01,45,045,50,02,45,045,50,03,45,045,50,04,45,045,50*7c
$GPGSV,3,2,12,05,45,045,50,06,45,045,50,07,45,045,50,08,45,045,50*77
$GPGSV,3,3,12,09,45,045,50,10,45,045,50,11,45,045,50,12,45,045,50*71
$GPRMC,150822.00,A,4611.1744,N,2000.1350,E,27.8,128.3,150918,0.0,E,A*39
$GPVTG,128.3,T,0.0,M,27.8,N,51.5,K*4a
$GPGGA,150822.00,4611.1744,N,2000.1350,E,12,12,1.0,78.0,M,0.0,M,0.0,0000*40
$GPGSA,A,3,01,02,03,04,05,06,07,08,09,10,11,12,1.2,1.0,0.6*35
$GPGSV,3,1,12,01,45,045,50,02,45,045,50,03,45,045,50,04,45,045,50*7c
$GPGSV,3,2,12,05,45,045,50,06,45,045,50,07,45,045,50,08,45,045,50*77
$GPGSV,3,3,12,09,45,045,50,10,45,045,50,11,45,045,50,12,45,045,50*71
$GPRMC,150823.00,A,4611.1700,N,2000.1438,E,27.8,127.6,150918,0.0,E,A*3b
$GPVTG,127.6,T,0.0,M,27.8,N,51.6,K*43
$GPGGA,150823.00,4611.1700,N,2000.1438,E,12,12,1.0,78.1,M,0.0,M,0.0,0000*49
$GPGSA,A,3,01,02,03,04,05,06,07,08,09,10,11,12,1.2,1.0,0.6*35
$GPGSV,3,1,12,01,45,045,50,02,45,045,50,03,45,045,50,04,45,045,50*7c
$GPGSV,3,2,12,05,45,045,50,06,45,045,50,07,45,045,50,08,45,045,50*77
$GPGSV,3,3,12,09,45,045,50,10,45,045,50,11,45,045,50,12,45,045,50*71
$GPRMC,150824.00,A,4611.1653,N,2000.1527,E,27.9,126.9,150918,0.0,E,A*3b
$GPVTG,126.9,T,0.0,M,27.9,N,51.6,K*4c
$GPGGA,150824.00,4611.1653,N,2000.1527,E,12,12,1.0,78.1,M,0.0,M,0.0,0000*46
$GPGSA,A,3,01,02,03,04,05,06,07,08,09,10,11,12,1.2,1.0,0.6*35
$GPGSV,3,1,12,01,45,045,50,02,45,045,50,03,45,045,50,04,45,045,50*7c
$GPGSV,3,2,12,05,45,045,50,06,45,045,50,07,45,045,50,08,45,045,50*77
$GPGSV,3,3,12,09,45,045,50,10,45,045,50,11,45,045,50,12,45,045,50*71
$GPRMC,150825.00,A,4611.1606,N,2000.1614,E,28.0,127.3,150918,0.0,E,A*34
$GPVTG,127.3,T,0.0,M,28.0,N,51.8,K*4f
$GPGGA,150825.00,4611.1606,N,2000.1614,E,12,12,1.0,77.9,M,0.0,M,0.0,0000*43
$GPGSA,A,3,01,02,03,04,05,06,07,08,09,10,11,12,1.2,1.0,0.6*35
$GPGSV,3,1,12,01,45,045,50,02,45,045,50,03,45,045,50,04,45,045,50*7c
$GPGSV,3,2,12,05,45,045,50,06,45,045,50,07,45,045,50,08,45,045,50*77
$GPGSV,3,3,12,09,45,045,50,10,45,045,50,11,45,045,50,12,45,045,50*71
$GPRMC,150826.00,A,4611.1559,N,2000.1704,E,28.0,127.6,150918,0.0,E,A*3b
$GPVTG,127.6,T,0.0,M,28.0,N,51.8,K*4a
$GPGGA,150826.00,4611.1559,N,2000.1704,E,12,12,1.0,77.6,M,0.0,M,0.0,0000*46
$GPGSA,A,3,01,02,03,04,05,06,07,08,09,10,11,12,1.2,1.0,0.6*35
$GPGSV,3,1,12,01,45,045,50,02,45,045,50,03,45,045,50,04,45,045,50*7c
$GPGSV,3,2,12,05,45,045,50,06,45,045,50,07,45,045,50,08,45,045,50*77
$GPGSV,3,3,12,09,45,045,50,10,45,045,50,11,45,045,50,12,45,045,50*71
$GPRMC,150827.00,A,4611.1514,N,2000.1793,E,27.9,128.0,150918,0.0,E,A*32
$GPVTG,128.0,T,0.0,M,27.9,N,51.7,K*4a
$GPGGA,150827.00,4611.1514,N,2000.1793,E,12,12,1.0,77.8,M,0.0,M,0.0,0000*4e
$GPGSA,A,3,01,02,03,04,05,06,07,08,09,10,11,12,1.2,1.0,0.6*35
$GPGSV,3,1,12,01,45,045,50,02,45,045,50,03,45,045,50,04,45,045,50*7c
$GPGSV,3,2,12,05,45,045,50,06,45,045,50,07,45,045,50,08,45,045,50*77
$GPGSV,3,3,12,09,45,045,50,10,45,045,50,11,45,045,50,12,45,045,50*71
$GPRMC,150828.00,A,4611.1469,N,2000.1884,E,28.1,127.6,150918,0.0,E,A*31
$GPVTG,127.6,T,0.0,M,28.1,N,52.0,K*40
$GPGGA,150828.00,4611.1469,N,2000.1884,E,12,12,1.0,78.4,M,0.0,M,0.0,0000*40
$GPGSA,A,3,01,02,03,04,05,06,07,08,09,10,11,12,1.2,1.0,0.6*35
$GPGSV,3,1,12,01,45,045,50,02,45,045,50,03,45,045,50,04,45,045,50*7c
$GPGSV,3,2,12,05,45,045,50,06,45,045,50,07,45,045,50,08,45,045,50*77
$GPGSV,3,3,12,09,45,045,50,10,45,045,50,11,45,045,50,12,45,045,50*71
$GPRMC,150829.00,A,4611.1424,N,2000.1974,E,28.1,127.6,150918,0.0,E,A*37
$GPVTG,127.6,T,0.0,M,28.1,N,52.1,K*41
$GPGGA,150829.00,4611.1424,N,2000.1974,E,12,12,1.0,78.3,M,0.0,M,0.0,0000*41
$GPGSA,A,3,01,02,03,04,05,06,07,08,09,10,11,12,1.2,1.0,0.6*35
$GPGSV,3,1,12,01,45,045,50,02,45,045,50,03,45,045,50,04,45,045,50*7c
$GPGSV,3,2,12,05,45,045,50,06,45,045,50,07,45,045,50,08,45,045,50*77
$GPGSV,3,3,12,09,45,045,50,10,45,045,50,11,45,045,50,12,45,045,50*71
$GPRMC,150830.00,A,4611.1373,N,2000.2067,E,29.1,128.0,150918,0.0,E,A*3a
$GPVTG,128.0,T,0.0,M,29.1,N,53.9,K*40
$GPGGA,150830.00,4611.1373,N,2000.2067,E,12,12,1.0,78.2,M,0.0,M,0.0,0000*45
$GPGSA,A,3,01,02,03,04,05,06,07,08,09,10,11,12,1.2,1.0,0.6*35
$GPGSV,3,1,12,01,45,045,50,02,45,045,50,03,45,045,50,04,45,045,50*7c
$GPGSV,3,2,12,05,45,045,50,06,45,045,50,07,45,045,50,08,45,045,50*77
$GPGSV,3,3,12,09,45,045,50,10,45,045,50,11,45,045,50,12,45,045,50*71
$GPRMC,150831.00,A,4611.1326,N,2000.2162,E,29.0,127.3,150918,0.0,E,A*32
$GPVTG,127.3,T,0.0,M,29.0,N,53.7,K*43
$GPGGA,150831.00,4611.1326,N,2000.2162,E,12,12,1.0,78.5,M,0.0,M,0.0,0000*47
$GPGSA,A,3,01,02,03,04,05,06,07,08,09,10,11,12,1.2,1.0,0.6*35
$GPGSV,3,1,12,01,45,045,50,02,45,045,50,03,45,045,50,04,45,045,50*7c
$GPGSV,3,2,12,05,45,045,50,06,45,045,50,07,45,045,50,08,45,045,50*77
$GPGSV,3,3,12,09,45,045,50,10,45,045,50,11,45,045,50,12,45,045,50*71
$GPRMC,150832.00,A,4611.1277,N,2000.2254,E,29.1,127.6,150918,0.0,E,A*36
$GPVTG,127.6,T,0.0,M,29.1,N,53.9,K*49
$GPGGA,150832.00,4611.1277,N,2000.2254,E,12,12,1.0,78.0,M,0.0,M,0.0,0000*42
$GPGSA,A,3,01,02,03,04,05,06,07,08,09,10,11,12,1.2,1.0,0.6*35
$GPGSV,3,1,12,01,45,045,50,02,45,045,50,03,45,045,50,04,45,045,50*7c
$GPGSV,3,2,12,05,45,045,50,06,45,045,50,07,45,045,50,08,45,045,50*77
$GPGSV,3,3,12,09,45,045,50,10,45,045,50,11,45,045,50,12,45,045,50*71
$GPRMC,150833.00,A,4611.1229,N,2000.2346,E,29.2,128.0,150918,0.0,E,A*34
$GPVTG,128.0,T,0.0,M,29.2,N,54.1,K*4c
$GPGGA,150833.00,4611.1229,N,2000.2346,E,12,12,1.0,77.6,M,0.0,M,0.0,0000*43
$GPGSA,A,3,01,02,03,04,05,06,07,08,09,10,11,12,1.2,1.0,0.6*35
$GPGSV,3,1,12,01,45,045,50,02,45,045,50,03,45,045,50,04,45,045,50*7c
$GPGSV,3,2,12,05,45,045,50,06,45,045,50,07,45,045,50,08,45,045,50*77
$GPGSV,3,3,12,09,45,045,50,10,45,045,50,11,45,045,50,12,45,045,50*71
$GPRMC,150834.00,A,4611.1181,N,2000.2439,E,28.9,127.6,150918,0.0,E,A*3e
$GPVTG,127.6,T,0.0,M,28.9,N,53.6,K*4f
$GPGGA,150834.00,4611.1181,N,2000.2439,E,12,12,1.0,77.4,M,0.0,M,0.0,0000*48
$GPGSA,A,3,01,02,03,04,05,06,07,08,09,10,11,12,1.2,1.0,0.6*35
$GPGSV,3,1,12,01,45,045,50,02,45,045,50,03,45,045,50,04,45,045,50*7c
$GPGSV,3,2,12,05,45,045,50,06,45,045,50,07,45,045,50,08,45,045,50*77
$GPGSV,3,3,12,09,45,045,50,10,45,045,50,11,45,045,50,12,45,045,50*71
$GPRMC,150835.00,A,4611.1132,N,2000.2532,E,28.9,127.3,150918,0.0,E,A*38
$GPVTG,127.3,T,0.0,M,28.9,N,53.5,K*49
$GPGGA,150835.00,4611.1132,N,2000.2532,E,12,12,1.0,76.9,M,0.0,M,0.0,0000*47
$GPGSA,A,3,01,02,03,04,05,06,07,08,09,10,11,12,1.2,1.0,0.6*35
$GPGSV,3,1,12,01,45,045,50,02,45,045,50,03,45,045,50,04,45,045,50*7c
$GPGSV,3,2,12,05,45,045,50,06,45,045,50,07,45,045,50,08,45,045,50*77
$GPGSV,3,3,12,09,45,045,50,10,45,045,50,11,45,045,50,12,45,045,50*71
$GPRMC,150836.00,A,4611.1084,N,2000.2625,E,28.7,126.9,150918,0.0,E,A*37
$GPVTG,126.9,T,0.0,M,28.7,N,53.1,K*48
$GPGGA,150836.00,4611.1084,N,2000.2625,E,12,12,1.0,76.9,M,0.0,M,0.0,0000*4d
$GPGSA,A,3,01,02,03,04,05,06,07,08,09,10,11,12,1.2,1.0,0.6*35
$GPGSV,3,1,12,01,45,045,50,02,45,045,50,03,45,045,50,04,45,045,50*7c
$GPGSV,3,2,12,05,45,045,50,06,45,045,50,07,45,045,50,08,45,045,50*77
$GPGSV,3,3,12,09,45,045,50,10,45,045,50,11,45,045,50,12,45,045,50*71
$GPRMC,150837.00,A,4611.1035,N,2000.2719,E,28.8,127.6,150918,0.0,E,A*33
$GPVTG,127.6,T,0.0,M,28.8,N,53.4,K*4c
$GPGGA,150837.00,4611.1035,N,2000.2719,E,12,12,1.0,77.2,M,0.0,M,0.0,0000*42
$GPGSA,A,3,01,02,03,04,05,06,07,08,09,10,11,12,1.2,1.0,0.6*35
$GPGSV,3,1,12,01,45,045,50,02,45,045,50,03,45,045,50,04,45,045,50*7c
$GPGSV,3,2,12,05,45,045,50,06,45,045,50,07,45,045,50,08,45,045,50*77
$GPGSV,3,3,12,09,45,045,50,10,45,045,50,11,45,045,50,12,45,045,50*71
$GPRMC,150838.00,A,4611.0988,N,2000.2810,E,28.9,127.6,150918,0.0,E,A*35
$GPVTG,127.6,T,0.0,M,28.9,N,53.5,K*4c
$GPGGA,150838.00,4611.0988,N,2000.2810,E,12,12,1.0,77.2,M,0.0,M,0.0,0000*45
$GPGSA,A,3,01,02,03,04,05,06,07,08,09,10,11,12,1.2,1.0,0.6*35
$GPGSV,3,1,12,01,45,045,50,02,45,045,50,03,45,045,50,04,45,045,50*7c
$GPGSV,3,2,12,05,45,045,50,06,45,045,50,07,45,045,50,08,45,045,50*77
$GPGSV,3,3,12,09,45,045,50,10,45,045,50,11,45,045,50,12,45,045,50*71
$GPRMC,150839.00,A,4611.0941,N,2000.2889,E,29.0,127.3,150918,0.0,E,A*3c
$GPVTG,127.3,T,0.0,M,29.0,N,53.7,K*43
$GPGGA,150839.00,4611.0941,N,2000.2889,E,12,12,1.0,77.7,M,0.0,M,0.0,0000*44
$GPGSA,A,3,01,02,03,04,05,06,07,08,09,10,11,12,1.2,1.0,0.6*35
$GPGSV,3,1,12,01,45,045,50,02,45,045,50,03,45,045,50,04,45,045,50*7c
$GPGSV,3,2,12,05,45,045,50,06,45,045,50,07,45,045,50,08,45,045,50*77
$GPGSV,3,3,12,09,45,045,50,10,45,045,50,11,45,045,50,12,45,045,50*71
$GPRMC,150840.00,A,4611.0893,N,2000.2983,E,29.2,127.6,150918,0.0,E,A*30
$GPVTG,127.6,T,0.0,M,29.2,N,54.1,K*45
$GPGGA,150840.00,4611.0893,N,2000.2983,E,12,12,1.0,77.4,M,0.0,M,0.0,0000*4c
$GPGSA,A,3,01,02,03,04,05,06,07,08,09,10,11,12,1.2,1.0,0.6*35
$GPGSV,3,1,12,01,45,045,50,02,45,045,50,03,45,045,50,04,45,045,50*7c
$GPGSV,3,2,12,05,45,045,50,06,45,045,50,07,45,045,50,08,45,045,50*77
$GPGSV,3,3,12,09,45,045,50,10,45,045,50,11,45,045,50,12,45,045,50*71
$GPRMC,150841.00,A,4611.0847,N,2000.3076,E,29.3,127.6,150918,0.0,E,A*3b
$GPVTG,127.6,T,0.0,M,29.3,N,54.3,K*46
$GPGGA,150841.00,4611.0847,N,2000.3076,E,12,12,1.0,77.6,M,0.0,M,0.0,0000*44
$GPGSA,A,3,01,02,03,04,05,06,07,08,09,10,11,12,1.2,1.0,0.6*35
$GPGSV,3,1,12,01,45,045,50,02,45,045,50,03,45,045,50,04,45,045,50*7c
$GPGSV,3,2,12,05,45,045,50,06,45,045,50,07,45,045,50,08,45,045,50*77
$GPGSV,3,3,12,09,45,045,50,10,45,045,50,11,45,045,50,12,45,045,50*71
$GPRMC,150842.00,A,4611.0798,N,2000.3172,E,29.3,127.3,150918,0.0,E,A*35
$GPVTG,127.3,T,0.0,M,29.3,N,54.2,K*42
$GPGGA,150842.00,4611.0798,N,2000.3172,E,12,12,1.0,77.7,M,0.0,M,0.0,0000*4e
$GPGSA,A,3,01,02,03,04,05,06,07,08,09,10,11,12,1.2,1.0,0.6*35
$GPGSV,3,1,12,01,45,045,50,02,45,045,50,03,45,045,50,04,45,045,50*7c
$GPGSV,3,2,12,05,45,045,50,06,45,045,50,07,45,045,50,08,45,045,50*77
$GPGSV,3,3,12,09,45,045,50,10,45,045,50,11,45,045,50,12,45,045,50*71
$GPRMC,150843.00,A,4611.0751,N,2000.3262,E,29.2,127.6,150918,0.0,E,A*37
$GPVTG,127.6,T,0.0,M,29.2,N,54.1,K*45
$GPGGA,150843.00,4611.0751,N,2000.3262,E,12,12,1.0,77.6,M,0.0,M,0.0,0000*49
$GPGSA,A,3,01,02,03,04,05,06,07,08,09,10,11,12,1.2,1.0,0.6*35
$GPGSV,3,1,12,01,45,045,50,02,45,045,50,03,45,045,50,04,45,045,50*7c
$GPGSV,3,2,12,05,45,045,50,06,45,045,50,07,45,045,50,08,45,045,50*77
$GPGSV,3,3,12,09,45,045,50,10,45,045,50,11,45,045,50,12,45,045,50*71
$GPRMC,150844.00,A,4611.0701,N,2000.3362,E,29.1,127.6,150918,0.0,E,A*37
$GPVTG,127.6,T,0.0,M,29.1,N,53.9,K*49
$GPGGA,150844.00,4611.0701,N,2000.3362,E,12,12,1.0,77.7,M,0.0,M,0.0,0000*4b
$GPGSA,A,3,01,02,03,04,05,06,07,08,09,10,11,12,1.2,1.0,0.6*35
$GPGSV,3,1,12,01,45,045,50,02,45,045,50,03,45,045,50,04,45,045,50*7c
$GPGSV,3,2,12,05,45,045,50,06,45,045,50,07,45,045,50,08,45,045,50*77
$GPGSV,3,3,12,09,45,045,50,10,45,045,50,11,45,045,50,12,45,045,50*71
$GPRMC,150845.00,A,4611.0651,N,2000.3455,E,29.3,127.6,150918,0.0,E,A*33
$GPVTG,127.6,T,0.0,M,29.3,N,54.3,K*46
$GPGGA,150845.00,4611.0651,N,2000.3455,E,12,12,1.0,77.5,M,0.0,M,0.0,0000*4f
$GPGSA,A,3,01,02,03,04,05,06,07,08,09,10,11,12,1.2,1.0,0.6*35
$GPGSV,3,1,12,01,45,045,50,02,45,045,50,03,45,045,50,04,45,045,50*7c
$GPGSV,3,2,12,05,45,045,50,06,45,045,50,07,45,045,50,08,45,045,50*77
$GPGSV,3,3,12,09,45,045,50,10,45,045,50,11,45,045,50,12,45,045,50*71
$GPRMC,150846.00,A,4611.0605,N,2000.3545,E,29.3,128.0,150918,0.0,E,A*38
$GPVTG,128.0,T,0.0,M,29.3,N,54.3,K*4f
$GPGGA,150846.00,4611.0605,N,2000.3545,E,12,12,1.0,77.5,M,0.0,M,0.0,0000*4d
$GPGSA,A,3,01,02,03,04,05,06,07,08,09,10,11,12,1.2,1.0,0.6*35
$GPGSV,3,1,12,01,45,045,50,02,45,045,50,03,45,045,50,04,45,045,50*7c
$GPGSV,3,2,12,05,45,045,50,06,45,045,50,07,45,045,50,08,45,045,50*77
$GPGSV,3,3,12,09,45,045,50,10,45,045,50,11,45,045,50,12,45,045,50*71
$GPRMC,150847.00,A,4611.0558,N,2000.3637,E,29.4,127.6,150918,0.0,E,A*3a
$GPVTG,127.6,T,0.0,M,29.4,N,54.4,K*46
$GPGGA,150847.00,4611.0558,N,2000.3637,E,12,12,1.0,77.6,M,0.0,M,0.0,0000*42
$GPGSA,A,3,01,02,03,04,05,06,07,08,09,10,11,12,1.2,1.0,0.6*35
$GPGSV,3,1,12,01,45,045,50,02,45,045,50,03,45,045,50,04,45,045,50*7c
$GPGSV,3,2,12,05,45,045,50,06,45,045,50,07,45,045,50,08,45,045,50*77
$GPGSV,3,3,12,09,45,045,50,10,45,045,50,11,45,045,50,12,45,045,50*71
$GPRMC,150848.00,A,4611.0508,N,2000.3729,E,29.6,127.6,150918,0.0,E,A*3c
$GPVTG,127.6,T,0.0,M,29.6,N,54.9,K*49
$GPGGA,150848.00,4611.0508,N,2000.3729,E,12,12,1.0,77.3,M,0.0,M,0.0,0000*43
$GPGSA,A,3,01,02,03,04,05,06,07,08,09,10,11,12,1.2,1.0,0.6*35
$GPGSV,3,1,12,01,45,045,50,02,45,045,50,03,45,045,50,04,45,045,50*7c
$GPGSV,3,2,12,05,45,045,50,06,45,045,50,07,45,045,50,08,45,045,50*77
$GPGSV,3,3,12,09,45,045,50,10,45,045,50,11,45,045,50,12,45,045,50*71
$GPRMC,150849.00,A,4611.0456,N,2000.3821,E,29.7,127.6,150918,0.0,E,A*31
$GPVTG,127.6,T,0.0,M,29.7,N,55.0,K*40
$GPGGA,150849.00,4611.0456,N,2000.3821,E,12,12,1.0,78.0,M,0.0,M,0.0,0000*43
$GPGSA,A,3,01,02,03,04,05,06,07,08,09,10,11,12,1.2,1.0,0.6*35
$GPGSV,3,1,12,01,45,045,50,02,45,045,50,03,45,045,50,04,45,045,50*7c
$GPGSV,3,2,12,05,45,045,50,06,45,045,50,07,45,045,50,08,45,045,50*77
$GPGSV,3,3,12,09,45,045,50,10,45,045,50,11,45,045,50,12,45,045,50*71
$GPRMC,150850.00,A,4611.0408,N,2000.3916,E,29.7,127.6,150918,0.0,E,A*37
$GPVTG,127.6,T,0.0,M,29.7,N,55.0,K*40
$GPGGA,150850.00,4611.0408,N,2000.3916,E,12,12,1.0,77.5,M,0.0,M,0.0,0000*4f
$GPGSA,A,3,01,02,03,04,05,06,07,08,09,10,11,12,1.2,1.0,0.6*35
$GPGSV,3,1,12,01,45,045,50,02,45,045,50,03,45,045,50,04,45,045,50*7c
$GPGSV,3,2,12,05,45,045,50,06,45,045,50,07,45,045,50,08,45,045,50*77
$GPGSV,3,3,12,09,45,045,50,10,45,045,50,11,45,045,50,12,45,045,50*71
$GPRMC,150851.00,A,4611.0357,N,2000.4007,E,29.7,128.0,150918,0.0,E,A*3c
$GPVTG,128.0,T,0.0,M,29.7,N,55.0,K*49
$GPGGA,150851.00,4611.0357,N,2000.4007,E,12,12,1.0,77.4,M,0.0,M,0.0,0000*4c
$GPGSA,A,3,01,02,03,04,05,06,07,08,09,10,11,12,1.2,1.0,0.6*35
$GPGSV,3,1,12,01,45,045,50,02,45,045,50,03,45,045,50,04,45,045,50*7c
$GPGSV,3,2,12,05,45,045,50,06,45,045,50,07,45,045,50,08,45,045,50*77
$GPGSV,3,3,12,09,45,045,50,10,45,045,50,11,45,045,50,12,45,045,50*71
$GPRMC,150852.00,A,4611.0306,N,2000.4106,E,29.9,127.6,150918,0.0,E,A*3c
$GPVTG,127.6,T,0.0,M,29.9,N,55.3,K*4d
$GPGGA,150852.00,4611.0306,N,2000.4106,E,12,12,1.0,77.5,M,0.0,M,0.0,0000*4a
$GPGSA,A,3,01,02,03,04,05,06,07,08,09,10,11,12,1.2,1.0,0.6*35
$GPGSV,3,1,12,01,45,045,50,02,45,045,50,03,45,045,50,04,45,045,50*7c
$GPGSV,3,2,12,05,45,045,50,06,45,045,50,07,45,045,50,08,45,045,50*77
$GPGSV,3,3,12,09,45,045,50,10,45,045,50,11,45,045,50,12,45,045,50*71
$GPRMC,150853.00,A,4611.0259,N,2000.4192,E,29.6,127.6,150918,0.0,E,A*34
$GPVTG,127.6,T,0.0,M,29.6,N,54.8,K*48
$GPGGA,150853.00,4611.0259,N,2000.4192,E,12,12,1.0,77.0,M,0.0,M,0.0,0000*48
$GPGSA,A,3,01,02,03,04,05,06,07,08,09,10,11,12,1.2,1.0,0.6*35
$GPGSV,3,1,12,01,45,045,50,02,45,045,50,03,45,045,50,04,45,045,50*7c
$GPGSV,3,2,12,05,45,045,50,06,45,045,50,07,45,045,50,08,45,045,50*77
$GPGSV,3,3,12,09,45,045,50,10,45,045,50,11,45,045,50,12,45,045,50*71
$GPRMC,150854.00,A,4611.0215,N,2000.4280,E,29.5,127.3,150918,0.0,E,A*3d
$GPVTG,127.3,T,0.0,M,29.5,N,54.7,K*41
$GPGGA,150854.00,4611.0215,N,2000.4280,E,12,12,1.0,79.2,M,0.0,M,0.0,0000*4b
$GPGSA,A,3,01,02,03,04,05,06,07,08,09,10,11,12,1.2,1.0,0.6*35
$GPGSV,3,1,12,01,45,045,50,02,45,045,50,03,45,045,50,04,45,045,50*7c
$GPGSV,3,2,12,05,45,045,50,06,45,045,50,07,45,045,50,08,45,045,50*77
$GPGSV,3,3,12,09,45,045,50,10,45,045,50,11,45,045,50,12,45,045,50*71
$GPRMC,150855.00,A,4611.0165,N,2000.4373,E,29.3,126.9,150918,0.0,E,A*38
$GPVTG,126.9,T,0.0,M,29.3,N,54.3,K*48
$GPGGA,150855.00,4611.0165,N,2000.4373,E,12,12,1.0,79.7,M,0.0,M,0.0,0000*46
$GPGSA,A,3,01,02,03,04,05,06,07,08,09,10,11,12,1.2,1.0,0.6*35
$GPGSV,3,1,12,01,45,045,50,02,45,045,50,03,45,045,50,04,45,045,50*7c
$GPGSV,3,2,12,05,45,045,50,06,45,045,50,07,45,045,50,08,45,045,50*77
$GPGSV,3,3,12,09,45,045,50,10,45,045,50,11,45,045,50,12,45,045,50*71
$GPRMC,150856.00,A,4611.0118,N,2000.4460,E,29.1,126.6,150918,0.0,E,A*39
$GPVTG,126.6,T,0.0,M,29.1,N,53.9,K*48
$GPGGA,150856.00,4611.0118,N,2000.4460,E,12,12,1.0,80.3,M,0.0,M,0.0,0000*48
$GPGSA,A,3,01,02,03,04,05,06,07,08,09,10,11,12,1.2,1.0,0.6*35
$GPGSV,3,1,12,01,45,045,50,02,45,045,50,03,45,045,50,04,45,045,50*7c
$GPGSV,3,2,12,05,45,045,50,06,45,045,50,07,45,045,50,08,45,045,50*77
$GPGSV,3,3,12,09,45,045,50,10,45,045,50,11,45,045,50,12,45,045,50*71
$GPRMC,150857.00,A,4611.0071,N,2000.4546,E,29.0,125.9,150918,0.0,E,A*3e
$GPVTG,125.9,T,0.0,M,29.0,N,53.7,K*4b
$GPGGA,150857.00,4611.0071,N,2000.4546,E,12,12,1.0,80.6,M,0.0,M,0.0,0000*47
$GPGSA,A,3,01,02,03,04,05,06,07,08,09,10,11,12,1.2,1.0,0.6*35
$GPGSV,3,1,12,01,45,045,50,02,45,045,50,03,45,045,50,04,45,045,50*7c
$GPGSV,3,2,12,05,45,045,50,06,45,045,50,07,45,045,50,08,45,045,50*77
$GPGSV,3,3,12,09,45,045,50,10,45,045,50,11,45,045,50,12,45,045,50*71
$GPRMC,150858.00,A,4611.0026,N,2000.4629,E,29.0,125.2,150918,0.0,E,A*32
$GPVTG,125.2,T,0.0,M,29.0,N,53.8,K*4f
$GPGGA,150858.00,4611.0026,N,2000.4629,E,12,12,1.0,81.3,M,0.0,M,0.0,0000*44
$GPGSA,A,3,01,02,03,04,05,06,07,08,09,10,11,12,1.2,1.0,0.6*35
$GPGSV,3,1,12,01,45,045,50,02,45,045,50,03,45,045,50,04,45,045,50*7c
$GPGSV,3,2,12,05,45,045,50,06,45,045,50,07,45,045,50,08,45,045,50*77
$GPGSV,3,3,12,09,45,045,50,10,45,045,50,11,45,045,50,12,45,045,50*71
$GPRMC,150859.00,A,4610.9980,N,2000.4721,E,29.2,124.8,150918,0.0,E,A*3e
$GPVTG,124.8,T,0.0,M,29.2,N,54.0,K*49
$GPGGA,150859.00,4610.9980,N,2000.4721,E,12,12,1.0,82.4,M,0.0,M,0.0,0000*45
$GPGSA,A,3,01,02,03,04,05,06,07,08,09,10,11,12,1.2,1.0,0.6*35
$GPGSV,3,1,12,01,45,045,50,02,45,045,50,03,45,045,50,04,45,045,50*7c
$GPGSV,3,2,12,05,45,045,50,06,45,045,50,07,45,045,50,08,45,045,50*77
$GPGSV,3,3,12,09,45,045,50,10,45,045,50,11,45,045,50,12,45,045,50*71
$GPRMC,150900.00,A,4610.9934,N,2000.4816,E,28.8,123.4,150918,0.0,E,A*37
$GPVTG,123.4,T,0.0,M,28.8,N,53.3,K*4d
$GPGGA,150900.00,4610.9934,N,2000.4816,E,12,12,1.0,82.7,M,0.0,M,0.0,0000*4f
$GPGSA,A,3,01,02,03,04,05,06,07,08,09,10,11,12,1.2,1.0,0.6*35
$GPGSV,3,1,12,01,45,045,50,02,45,045,50,03,45,045,50,04,45,045,50*7c
$GPGSV,3,2,12,05,45,045,50,06,45,045,50,07,45,045,50,08,45,045,50*77
$GPGSV,3,3,12,09,45,045,50,10,45,045,50,11,45,045,50,12,45,045,50*71
$GPRMC,150901.00,A,4610.9891,N,2000.4912,E,28.6,122.7,150918,0.0,E,A*31
$GPVTG,122.7,T,0.0,M,28.6,N,52.9,K*4a
$GPGGA,150901.00,4610.9891,N,2000.4912,E,12,12,1.0,82.8,M,0.0,M,0.0,0000*4a
$GPGSA,A,3,01,02,03,04,05,06,07,08,09,10,11,12,1.2,1.0,0.6*35
$GPGSV,3,1,12,01,45,045,50,02,45,045,50,03,45,045,50,04,45,045,50*7c
$GPGSV,3,2,12,05,45,045,50,06,45,045,50,07,45,045,50,08,45,045,50*77
$GPGSV,3,3,12,09,45,045,50,10,45,045,50,11,45,045,50,12,45,045,50*71
$GPRMC,150902.00,A,4610.9856,N,2000.5003,E,28.4,121.6,150918,0.0,E,A*31
$GPVTG,121.6,T,0.0,M,28.4,N,52.7,K*44
$GPGGA,150902.00,4610.9856,N,2000.5003,E,12,12,1.0,83.0,M,0.0,M,0.0,0000*43
$GPGSA,A,3,01,02,03,04,05,06,07,08,09,10,11,12,1.2,1.0,0.6*35
$GPGSV,3,1,12,01,45,045,50,02,45,045,50,03,45,045,50,04,45,045,50*7c
$GPGSV,3,2,12,05,45,045,50,06,45,045,50,07,45,045,50,08,45,045,50*77
$GPGSV,3,3,12,09,45,045,50,10,45,045,50,11,45,045,50,12,45,045,50*71
$GPRMC,150903.00,A,4610.9816,N,2000.5102,E,28.6,119.9,150918,0.0,E,A*32
$GPVTG,119.9,T,0.0,M,28.6,N,52.9,K*4c
$GPGGA,150903.00,4610.9816,N,2000.5102,E,12,12,1.0,83.1,M,0.0,M,0.0,0000*47
$GPGSA,A,3,01,02,03,04,05,06,07,08,09,10,11,12,1.2,1.0,0.6*35
$GPGSV,3,1,12,01,45,045,50,02,45,045,50,03,45,045,50,04,45,045,50*7c
$GPGSV,3,2,12,05,45,045,50,06,45,045,50,07,45,045,50,08,45,045,50*77
$GPGSV,3,3,12,09,45,045,50,10,45,045,50,11,45,045,50,12,45,045,50*71
$GPRMC,150904.00,A,4610.9764,N,2000.5222,E,28.7,120.6,150918,0.0,E,A*3a
$GPVTG,120.6,T,0.0,M,28.7,N,53.2,K*42
$GPGGA,150904.00,4610.9764,N,2000.5222,E,12,12,1.0,82.0,M,0.0,M,0.0,0000*4b
$GPGSA,A,3,01,02,03,04,05,06,07,08,09,10,11,12,1.2,1.0,0.6*35
$GPGSV,3,1,12,01,45,045,50,02,45,045,50,03,45,045,50,04,45,045,50*7c
$GPGSV,3,2,12,05,45,045,50,06,45,045,50,07,45,045,50,08,45,045,50*77
$GPGSV,3,3,12,09,45,045,50,10,45,045,50,11,45,045,50,12,45,045,50*71
$GPRMC,150905.00,A,4610.9723,N,2000.5312,E,28.6,120.6,150918,0.0,E,A*3b
$GPVTG,120.6,T,0.0,M,28.6,N,52.9,K*49
$GPGGA,150905.00,4610.9723,N,2000.5312,E,12,12,1.0,82.1,M,0.0,M,0.0,0000*4a
$GPGSA,A,3,01,02,03,04,05,06,07,08,09,10,11,12,1.2,1.0,0.6*35
$GPGSV,3,1,12,01,45,045,50,02,45,045,50,03,45,045,50,04,45,045,50*7c
$GPGSV,3,2,12,05,45,045,50,06,45,045,50,07,45,045,50,08,45,045,50*77
$GPGSV,3,3,12,09,45,045,50,10,45,045,50,11,45,045,50,12,45,045,50*71
$GPRMC,150906.00,A,4610.9685,N,2000.5406,E,28.4,120.6,150918,0.0,E,A*35
$GPVTG,120.6,T,0.0,M,28.4,N,52.5,K*47
$GPGGA,150906.00,4610.9685,N,2000.5406,E,12,12,1.0,81.9,M,0.0,M,0.0,0000*4d
$GPGSA,A,3,01,02,03,04,05,06,07,08,09,10,11,12,1.2,1.0,0.6*35
$GPGSV,3,1,12,01,45,045,50,02,45,045,50,03,45,045,50,04,45,045,50*7c
$GPGSV,3,2,12,05,45,045,50,06,45,045,50,07,45,045,50,08,45,045,50*77
$GPGSV,3,3,12,09,45,045,50,10,45,045,50,11,45,045,50,12,45,045,50*71
$GPRMC,150907.00,A,4610.9649,N,2000.5497,E,28.2,120.9,150918,0.0,E,A*35
$GPVTG,120.9,T,0.0,M,28.2,N,52.3,K*48
$GPGGA,150907.00,4610.9649,N,2000.5497,E,12,12,1.0,82.4,M,0.0,M,0.0,0000*4a
$GPGSA,A,3,01,02,03,04,05,06,07,08,09,10,11,12,1.2,1.0,0.6*35
$GPGSV,3,1,12,01,45,045,50,02,45,045,50,03,45,045,50,04,45,045,50*7c
$GPGSV,3,2,12,05,45,045,50,06,45,045,50,07,45,045,50,08,45,045,50*77
$GPGSV,3,3,12,09,45,045,50,10,45,045,50,11,45,045,50,12,45,045,50*71
$GPRMC,150908.00,A,4610.9607,N,2000.5588,E,28.2,120.9,150918,0.0,E,A*3f
$GPVTG,120.9,T,0.0,M,28.2,N,52.3,K*48
$GPGGA,150908.00,4610.9607,N,2000.5588,E,12,12,1.0,82.4,M,0.0,M,0.0,0000*40
$GPGSA,A,3,01,02,03,04,05,06,07,08,09,10,11,12,1.2,1.0,0.6*35
$GPGSV,3,1,12,01,45,045,50,02,45,045,50,03,45,045,50,04,45,045,50*7c
$GPGSV,3,2,12,05,45,045,50,06,45,045,50,07,45,045,50,08,45,045,50*77
$GPGSV,3,3,12,09,45,045,50,10,45,045,50,11,45,045,50,12,45,045,50*71
$GPRMC,150909.00,A,4610.9565,N,2000.5679,E,28.1,120.9,150918,0.0,E,A*37
$GPVTG,120.9,T,0.0,M,28.1,N,52.1,K*49
$GPGGA,150909.00,4610.9565,N,2000.5679,E,12,12,1.0,82.4,M,0.0,M,0.0,0000*4b
$GPGSA,A,3,01,02,03,04,05,06,07,08,09,10,11,12,1.2,1.0,0.6*35
$GPGSV,3,1,12,01,45,045,50,02,45,045,50,03,45,045,50,04,45,045,50*7c
$GPGSV,3,2,12,05,45,045,50,06,45,045,50,07,45,045,50,08,45,045,50*77
$GPGSV,3,3,12,09,45,045,50,10,45,045,50,11,45,045,50,12,45,045,50*71
$GPRMC,150910.00,A,4610.9488,N,2000.5815,E,27.6,120.2,150918,0.0,E,A*3a
$GPVTG,120.2,T,0.0,M,27.6,N,51.2,K*4a
$GPGGA,150910.00,4610.9488,N,2000.5815,E,12,12,1.0,80.9,M,0.0,M,0.0,0000*4a
$GPGSA,A,3,01,02,03,04,05,06,07,08,09,10,11,12,1.2,1.0,0.6*35
$GPGSV,3,1,12,01,45,045,50,02,45,045,50,03,45,045,50,04,45,045,50*7c
$GPGSV,3,2,12,05,45,045,50,06,45,045,50,07,45,045,50,08,45,045,50*77
$GPGSV,3,3,12,09,45,045,50,10,45,045,50,11,45,045,50,12,45,045,50*71
$GPRMC,150911.00,A,4610.9446,N,2000.5913,E,26.7,119.9,150918,0.0,E,A*3f
$GPVTG,119.9,T,0.0,M,26.7,N,49.4,K*44
$GPGGA,150911.00,4610.9446,N,2000.5913,E,12,12,1.0,80.5,M,0.0,M,0.0,0000*42
$GPGSA,A,3,01,02,03,04,05,06,07,08,09,10,11,12,1.2,1.0,0.6*35
$GPGSV,3,1,12,01,45,045,50,02,45,045,50,03,45,045,50,04,45,045,50*7c
$GPGSV,3,2,12,05,45,045,50,06,45,045,50,07,45,045,50,08,45,045,50*77
$GPGSV,3,3,12,09,45,045,50,10,45,045,50,11,45,045,50,12,45,045,50*71
$GPRMC,150912.00,A,4610.9404,N,2000.5998,E,26.0,121.3,150918,0.0,E,A*3f
$GPVTG,121.3,T,0.0,M,26.0,N,48.2,K*45
$GPGGA,150912.00,4610.9404,N,2000.5998,E,12,12,1.0,80.8,M,0.0,M,0.0,0000*49
$GPGSA,A,3,01,02,03,04,05,06,07,08,09,10,11,12,1.2,1.0,0.6*35
$GPGSV,3,1,12,01,45,045,50,02,45,045,50,03,45,045,50,04,45,045,50*7c
$GPGSV,3,2,12,05,45,045,50,06,45,045,50,07,45,045,50,08,45,045,50*77
$GPGSV,3,3,12,09,45,045,50,10,45,045,50,11,45,045,50,12,45,045,50*71
$GPRMC,150913.00,A,4610.9370,N,2000.6077,E,24.6,123.0,150918,0.0,E,A*34
$GPVTG,123.0,T,0.0,M,24.6,N,45.6,K*49
$GPGGA,150913.00,4610.9370,N,2000.6077,E,12,12,1.0,80.2,M,0.0,M,0.0,0000*4d
$GPGSA,A,3,01,02,03,04,05,06,07,08,09,10,11,12,1.2,1.0,0.6*35
$GPGSV,3,1,12,01,45,045,50,02,45,045,50,03,45,045,50,04,45,045,50*7c
$GPGSV,3,2,12,05,45,045,50,06,45,045,50,07,45,045,50,08,45,045,50*77
$GPGSV,3,3,12,09,45,045,50,10,45,045,50,11,45,045,50,12,45,045,50*71
$GPRMC,150914.00,A,4610.9338,N,2000.6148,E,22.7,124.8,150918,0.0,E,A*3a
$GPVTG,124.8,T,0.0,M,22.7,N,42.0,K*40
$GPGGA,150914.00,4610.9338,N,2000.6148,E,12,12,1.0,80.8,M,0.0,M,0.0,0000*41
$GPGSA,A,3,01,02,03,04,05,06,07,08,09,10,11,12,1.2,1.0,0.6*35
$GPGSV,3,1,12,01,45,045,50,02,45,045,50,03,45,045,50,04,45,045,50*7c
$GPGSV,3,2,12,05,45,045,50,06,45,045,50,07,45,045,50,08,45,045,50*77
$GPGSV,3,3,12,09,45,045,50,10,45,045,50,11,45,045,50,12,45,045,50*71
$GPRMC,150915.00,A,4610.9298,N,2000.6214,E,21.9,126.9,150918,0.0,E,A*34
$GPVTG,126.9,T,0.0,M,21.9,N,40.6,K*4a
$GPGGA,150915.00,4610.9298,N,2000.6214,E,12,12,1.0,80.8,M,0.0,M,0.0,0000*41
$GPGSA,A,3,01,02,03,04,05,06,07,08,09,10,11,12,1.2,1.0,0.6*35
$GPGSV,3,1,12,01,45,045,50,02,45,045,50,03,45,045,50,04,45,045,50*7c
$GPGSV,3,2,12,05,45,045,50,06,45,045,50,07,45,045,50,08,45,045,50*77
$GPGSV,3,3,12,09,45,045,50,10,45,045,50,11,45,045,50,12,45,045,50*71
$GPRMC,150916.00,A,4610.9295,N,2000.6258,E,17.0,121.3,150918,0.0,E,A*33
$GPVTG,121.3,T,0.0,M,17.0,N,31.4,K*4f
$GPGGA,150916.00,4610.9295,N,2000.6258,E,12,12,1.0,81.0,M,0.0,M,0.0,0000*4e
$GPGSA,A,3,01,02,03,04,05,06,07,08,09,10,11,12,1.2,1.0,0.6*35
$GPGSV,3,1,12,01,45,045,50,02,45,045,50,03,45,045,50,04,45,045,50*7c
$GPGSV,3,2,12,05,45,045,50,06,45,045,50,07,45,045,50,08,45,045,50*77
$GPGSV,3,3,12,09,45,045,50,10,45,045,50,11,45,045,50,12,45,045,50*71
$GPRMC,150917.00,A,4610.9275,N,2000.6314,E,17.4,121.3,150918,0.0,E,A*31
$GPVTG,121.3,T,0.0,M,17.4,N,32.2,K*4e
$GPGGA,150917.00,4610.9275,N,2000.6314,E,12,12,1.0,80.9,M,0.0,M,0.0,0000*40
$GPGSA,A,3,01,02,03,04,05,06,07,08,09,10,11,12,1.2,1.0,0.6*35
$GPGSV,3,1,12,01,45,045,50,02,45,045,50,03,45,045,50,04,45,045,50*7c
$GPGSV,3,2,12,05,45,045,50,06,45,045,50,07,45,045,50,08,45,045,50*77
$GPGSV,3,3,12,09,45,045,50,10,45,045,50,11,45,045,50,12,45,045,50*71
$GPRMC,150918.00,A,4610.9251,N,2000.6375,E,18.4,120.2,150918,0.0,E,A*30
$GPVTG,120.2,T,0.0,M,18.4,N,34.0,K*45
$GPGGA,150918.00,4610.9251,N,2000.6375,E,12,12,1.0,80.6,M,0.0,M,0.0,0000*41
$GPGSA,A,3,01,02,03,04,05,06,07,08,09,10,11,12,1.2,1.0,0.6*35
$GPGSV,3,1,12,01,45,045,50,02,45,045,50,03,45,045,50,04,45,045,50*7c
$GPGSV,3,2,12,05,45,045,50,06,45,045,50,07,45,045,50,08,45,045,50*77
$GPGSV,3,3,12,09,45,045,50,10,45,045,50,11,45,045,50,12,45,045,50*71
$GPRMC,150919.00,A,4610.9230,N,2000.6441,E,18.9,118.8,150918,0.0,E,A*3a
$GPVTG,118.8,T,0.0,M,18.9,N,35.0,K*48
$GPGGA,150919.00,4610.9230,N,2000.6441,E,12,12,1.0,80.5,M,0.0,M,0.0,0000*44
$GPGSA,A,3,01,02,03,04,05,06,07,08,09,10,11,12,1.2,1.0,0.6*35
$GPGSV,3,1,12,01,45,045,50,02,45,045,50,03,45,045,50,04,45,045,50*7c
$GPGSV,3,2,12,05,45,045,50,06,45,045,50,07,45,045,50,08,45,045,50*77
$GPGSV,3,3,12,09,45,045,50,10,45,045,50,11,45,045,50,12,45,045,50*71
$GPRMC,150920.00,A,4610.9201,N,2000.6514,E,19.9,117.8,150918,0.0,E,A*3d
$GPVTG,117.8,T,0.0,M,19.9,N,36.9,K*4c
$GPGGA,150920.00,4610.9201,N,2000.6514,E,12,12,1.0,80.7,M,0.0,M,0.0,0000*4f
$GPGSA,A,3,01,02,03,04,05,06,07,08,09,10,11,12,1.2,1.0,0.6*35
$GPGSV,3,1,12,01,45,045,50,02,45,045,50,03,45,045,50,04,45,045,50*7c
$GPGSV,3,2,12,05,45,045,50,06,45,045,50,07,45,045,50,08,45,045,50*77
$GPGSV,3,3,12,09,45,045,50,10,45,045,50,11,45,045,50,12,45,045,50*71
$GPRMC,150921.00,A,4610.9162,N,2000.6597,E,21.6,119.2,150918,0.0,E,A*31
$GPVTG,119.2,T,0.0,M,21.6,N,39.9,K*43
$GPGGA,150921.00,4610.9162,N,2000.6597,E,12,12,1.0,80.8,M,0.0,M,0.0,0000*4c
$GPGSA,A,3,01,02,03,04,05,06,07,08,09,10,11,12,1.2,1.0,0.6*35
$GPGSV,3,1,12,01,45,045,50,02,45,045,50,03,45,045,50,04,45,045,50*7c
$GPGSV,3,2,12,05,45,045,50,06,45,045,50,07,45,045,50,08,45,045,50*77
$GPGSV,3,3,12,09,45,045,50,10,45,045,50,11,45,045,50,12,45,045,50*71
$GPRMC,150922.00,A,4610.9143,N,2000.6672,E,21.6,117.8,150918,0.0,E,A*3d
$GPVTG,117.8,T,0.0,M,21.6,N,40.0,K*40
$GPGGA,150922.00,4610.9143,N,2000.6672,E,12,12,1.0,80.3,M,0.0,M,0.0,0000*4f
$GPGSA,A,3,01,02,03,04,05,06,07,08,09,10,11,12,1.2,1.0,0.6*35
$GPGSV,3,1,12,01,45,045,50,02,45,045,50,03,45,045,50,04,45,045,50*7c
$GPGSV,3,2,12,05,45,045,50,06,45,045,50,07,45,045,50,08,45,045,50*77
$GPGSV,3,3,12,09,45,045,50,10,45,045,50,11,45,045,50,12,45,045,50*71
$GPRMC,150923.00,A,4610.9089,N,2000.6767,E,23.6,120.2,150918,0.0,E,A*32
$GPVTG,120.2,T,0.0,M,23.6,N,43.6,K*49
$GPGGA,150923.00,4610.9089,N,2000.6767,E,12,12,1.0,80.1,M,0.0,M,0.0,0000*4e
$GPGSA,A,3,01,02,03,04,05,06,07,08,09,10,11,12,1.2,1.0,0.6*35
$GPGSV,3,1,12,01,45,045,50,02,45,045,50,03,45,045,50,04,45,045,50*7c
$GPGSV,3,2,12,05,45,045,50,06,45,045,50,07,45,045,50,08,45,045,50*77
$GPGSV,3,3,12,09,45,045,50,10,45,045,50,11,45,045,50,12,45,045,50*71
$GPRMC,150924.00,A,4610.9076,N,2000.6842,E,23.4,118.5,150918,0.0,E,A*33
$GPVTG,118.5,T,0.0,M,23.4,N,43.4,K*45
$GPGGA,150924.00,4610.9076,N,2000.6842,E,12,12,1.0,80.1,M,0.0,M,0.0,0000*41
$GPGSA,A,3,01,02,03,04,05,06,07,08,09,10,11,12,1.2,1.0,0.6*35
$GPGSV,3,1,12,01,45,045,50,02,45,045,50,03,45,045,50,04,45,045,50*7c
$GPGSV,3,2,12,05,45,045,50,06,45,045,50,07,45,045,50,08,45,045,50*77
$GPGSV,3,3,12,09,45,045,50,10,45,045,50,11,45,045,50,12,45,045,50*71
$GPRMC,150925.00,A,4610.9041,N,2000.6926,E,24.1,119.9,150918,0.0,E,A*3a
$GPVTG,119.9,T,0.0,M,24.1,N,44.6,K*4f
$GPGGA,150925.00,4610.9041,N,2000.6926,E,12,12,1.0,80.0,M,0.0,M,0.0,0000*46
$GPGSA,A,3,01,02,03,04,05,06,07,08,09,10,11,12,1.2,1.0,0.6*35
$GPGSV,3,1,12,01,45,045,50,02,45,045,50,03,45,045,50,04,45,045,50*7c
$GPGSV,3,2,12,05,45,045,50,06,45,045,50,07,45,045,50,08,45,045,50*77
$GPGSV,3,3,12,09,45,045,50,10,45,045,50,11,45,045,50,12,45,045,50*71
$GPRMC,150926.00,A,4610.9013,N,2000.7010,E,24.3,119.5,150918,0.0,E,A*3d
$GPVTG,119.5,T,0.0,M,24.3,N,45.0,K*46
$GPGGA,150926.00,4610.9013,N,2000.7010,E,12,12,1.0,80.5,M,0.0,M,0.0,0000*4a
$GPGSA,A,3,01,02,03,04,05,06,07,08,09,10,11,12,1.2,1.0,0.6*35
$GPGSV,3,1,12,01,45,045,50,02,45,045,50,03,45,045,50,04,45,045,50*7c
$GPGSV,3,2,12,05,45,045,50,06,45,045,50,07,45,045,50,08,45,045,50*77
$GPGSV,3,3,12,09,45,045,50,10,45,045,50,11,45,045,50,12,45,045,50*71
$GPRMC,150927.00,A,4610.8972,N,2000.7092,E,25.1,120.6,150918,0.0,E,A*33
$GPVTG,120.6,T,0.0,M,25.1,N,46.5,K*4a
$GPGGA,150927.00,4610.8972,N,2000.7092,E,12,12,1.0,80.2,M,0.0,M,0.0,0000*49
$GPGSA,A,3,01,02,03,04,05,06,07,08,09,10,11,12,1.2,1.0,0.6*35
$GPGSV,3,1,12,01,45,045,50,02,45,045,50,03,45,045,50,04,45,045,50*7c
$GPGSV,3,2,12,05,45,045,50,06,45,045,50,07,45,045,50,08,45,045,50*77
$GPGSV,3,3,12,09,45,045,50,10,45,045,50,11,45,045,50,12,45,045,50*71
$GPRMC,150928.00,A,4610.8941,N,2000.7179,E,25.2,120.2,150918,0.0,E,A*3f
$GPVTG,120.2,T,0.0,M,25.2,N,46.6,K*4e
$GPGGA,150928.00,4610.8941,N,2000.7179,E,12,12,1.0,80.1,M,0.0,M,0.0,0000*41
$GPGSA,A,3,01,02,03,04,05,06,07,08,09,10,11,12,1.2,1.0,0.6*35
$GPGSV,3,1,12,01,45,045,50,02,45,045,50,03,45,045,50,04,45,045,50*7c
$GPGSV,3,2,12,05,45,045,50,06,45,045,50,07,45,045,50,08,45,045,50*77
$GPGSV,3,3,12,09,45,045,50,10,45,045,50,11,45,045,50,12,45,045,50*71
$GPRMC,150929.00,A,4610.8902,N,2000.7265,E,25.2,120.2,150918,0.0,E,A*37
$GPVTG,120.2,T,0.0,M,25.2,N,46.6,K*4e
$GPGGA,150929.00,4610.8902,N,2000.7265,E,12,12,1.0,80.1,M,0.0,M,0.0,0000*49
$GPGSA,A,3,01,02,03,04,05,06,07,08,09,10,11,12,1.2,1.0,0.6*35
$GPGSV,3,1,12,01,45,045,50,02,45,045,50,03,45,045,50,04,45,045,50*7c
$GPGSV,3,2,12,05,45,045,50,06,45,045,50,07,45,045,50,08,45,045,50*77
$GPGSV,3,3,12,09,45,045,50,10,45,045,50,11,45,045,50,12,45,045,50*71
$GPRMC,150930.00,A,4610.8876,N,2000.7346,E,25.7,120.2,150918,0.0,E,A*38
$GPVTG,120.2,T,0.0,M,25.7,N,47.6,K*4a
$GPGGA,150930.00,4610.8876,N,2000.7346,E,12,12,1.0,80.0,M,0.0,M,0.0,0000*42
$GPGSA,A,3,01,02,03,04,05,06,07,08,09,10,11,12,1.2,1.0,0.6*35
$GPGSV,3,1,12,01,45,045,50,02,45,045,50,03,45,045,50,04,45,045,50*7c
$GPGSV,3,2,12,05,45,045,50,06,45,045,50,07,45,045,50,08,45,045,50*77
$GPGSV,3,3,12,09,45,045,50,10,45,045,50,11,45,045,50,12,45,045,50*71
$GPRMC,150931.00,A,4610.8842,N,2000.7434,E,26.1,120.2,150918,0.0,E,A*39
$GPVTG,120.2,T,0.0,M,26.1,N,48.3,K*45
$GPGGA,150931.00,4610.8842,N,2000.7434,E,12,12,1.0,79.8,M,0.0,M,0.0,0000*48
$GPGSA,A,3,01,02,03,04,05,06,07,08,09,10,11,12,1.2,1.0,0.6*35
$GPGSV,3,1,12,01,45,045,50,02,45,045,50,03,45,045,50,04,45,045,50*7c
$GPGSV,3,2,12,05,45,045,50,06,45,045,50,07,45,045,50,08,45,045,50*77
$GPGSV,3,3,12,09,45,045,50,10,45,045,50,11,45,045,50,12,45,045,50*71
$GPRMC,150932.00,A,4610.8805,N,2000.7525,E,26.1,119.9,150918,0.0,E,A*39
$GPVTG,119.9,T,0.0,M,26.1,N,48.4,K*43
$GPGGA,150932.00,4610.8805,N,2000.7525,E,12,12,1.0,79.9,M,0.0,M,0.0,0000*48
$GPGSA,A,3,01,02,03,04,05,06,07,08,09,10,11,12,1.2,1.0,0.6*35
$GPGSV,3,1,12,01,45,045,50,02,45,045,50,03,45,045,50,04,45,045,50*7c
$GPGSV,3,2,12,05,45,045,50,06,45,045,50,07,45,045,50,08,45,045,50*77
$GPGSV,3,3,12,09,45,045,50,10,45,045,50,11,45,045,50,12,45,045,50*71
$GPRMC,150933.00,A,4610.8772,N,2000.7609,E,26.5,120.6,150918,0.0,E,A*3b
$GPVTG,120.6,T,0.0,M,26.5,N,49.1,K*46
$GPGGA,150933.00,4610.8772,N,2000.7609,E,12,12,1.0,79.9,M,0.0,M,0.0,0000*4b
$GPGSA,A,3,01,02,03,04,05,06,07,08,09,10,11,12,1.2,1.0,0.6*35
$GPGSV,3,1,12,01,45,045,50,02,45,045,50,03,45,045,50,04,45,045,50*7c
$GPGSV,3,2,12,05,45,045,50,06,45,045,50,07,45,045,50,08,45,045,50*77
$GPGSV,3,3,12,09,45,045,50,10,45,045,50,11,45,045,50,12,45,045,50*71
$GPRMC,150934.00,A,4610.8733,N,2000.7703,E,26.8,120.2,150918,0.0,E,A*3b
$GPVTG,120.2,T,0.0,M,26.8,N,49.6,K*48
$GPGGA,150934.00,4610.8733,N,2000.7703,E,12,12,1.0,80.0,M,0.0,M,0.0,0000*4d
$GPGSA,A,3,01,02,03,04,05,06,07,08,09,10,11,12,1.2,1.0,0.6*35
$GPGSV,3,1,12,01,45,045,50,02,45,045,50,03,45,045,50,04,45,045,50*7c
$GPGSV,3,2,12,05,45,045,50,06,45,045,50,07,45,045,50,08,45,045,50*77
$GPGSV,3,3,12,09,45,045,50,10,45,045,50,11,45,045,50,12,45,045,50*71
$GPRMC,150935.00,A,4610.8697,N,2000.7796,E,26.8,120.2,150918,0.0,E,A*39
$GPVTG,120.2,T,0.0,M,26.8,N,49.7,K*49
$GPGGA,150935.00,4610.8697,N,2000.7796,E,12,12,1.0,80.0,M,0.0,M,0.0,0000*4f
$GPGSA,A,3,01,02,03,04,05,06,07,08,09,10,11,12,1.2,1.0,0.6*35
$GPGSV,3,1,12,01,45,045,50,02,45,045,50,03,45,045,50,04,45,045,50*7c
$GPGSV,3,2,12,05,45,045,50,06,45,045,50,07,45,045,50,08,45,045,50*77
$GPGSV,3,3,12,09,45,045,50,10,45,045,50,11,45,045,50,12,45,045,50*71
$GPRMC,150936.00,A,4610.8657,N,2000.7887,E,27.0,120.6,150918,0.0,E,A*34
$GPVTG,120.6,T,0.0,M,27.0,N,49.9,K*4a
$GPGGA,150936.00,4610.8657,N,2000.7887,E,12,12,1.0,79.5,M,0.0,M,0.0,0000*4c
$GPGSA,A,3,01,02,03,04,05,06,07,08,09,10,11,12,1.2,1.0,0.6*35
$GPGSV,3,1,12,01,45,045,50,02,45,045,50,03,45,045,50,04,45,045,50*7c
$GPGSV,3,2,12,05,45,045,50,06,45,045,50,07,45,045,50,08,45,045,50*77
$GPGSV,3,3,12,09,45,045,50,10,45,045,50,11,45,045,50,12,45,045,50*71
$GPRMC,150937.00,A,4610.8620,N,2000.7983,E,27.1,120.6,150918,0.0,E,A*31
$GPVTG,120.6,T,0.0,M,27.1,N,50.1,K*4b
$GPGGA,150937.00,4610.8620,N,2000.7983,E,12,12,1.0,79.5,M,0.0,M,0.0,0000*48
$GPGSA,A,3,01,02,03,04,05,06,07,08,09,10,11,12,1.2,1.0,0.6*35
$GPGSV,3,1,12,01,45,045,50,02,45,045,50,03,45,045,50,04,45,045,50*7c
$GPGSV,3,2,12,05,45,045,50,06,45,045,50,07,45,045,50,08,45,045,50*77
$GPGSV,3,3,12,09,45,045,50,10,45,045,50,11,45,045,50,12,45,045,50*71
$GPRMC,150938.00,A,4610.8578,N,2000.8075,E,27.0,120.9,150918,0.0,E,A*31
$GPVTG,120.9,T,0.0,M,27.0,N,50.0,K*44
$GPGGA,150938.00,4610.8578,N,2000.8075,E,12,12,1.0,80.3,M,0.0,M,0.0,0000*46
$GPGSA,A,3,01,02,03,04,05,06,07,08,09,10,11,12,1.2,1.0,0.6*35
$GPGSV,3,1,12,01,45,045,50,02,45,045,50,03,45,045,50,04,45,045,50*7c
$GPGSV,3,2,12,05,45,045,50,06,45,045,50,07,45,045,50,08,45,045,50*77
$GPGSV,3,3,12,09,45,045,50,10,45,045,50,11,45,045,50,12,45,045,50*71
$GPRMC,150939.00,A,4610.8541,N,2000.8170,E,27.2,120.6,150918,0.0,E,A*33
$GPVTG,120.6,T,0.0,M,27.2,N,50.4,K*4d
$GPGGA,150939.00,4610.8541,N,2000.8170,E,12,12,1.0,80.3,M,0.0,M,0.0,0000*49
$GPGSA,A,3,01,02,03,04,05,06,07,08,09,10,11,12,1.2,1.0,0.6*35
$GPGSV,3,1,12,01,45,045,50,02,45,045,50,03,45,045,50,04,45,045,50*7c
$GPGSV,3,2,12,05,45,045,50,06,45,045,50,07,45,045,50,08,45,045,50*77
$GPGSV,3,3,12,09,45,045,50,10,45,045,50,11,45,045,50,12,45,045,50*71
$GPRMC,150940.00,A,4610.8511,N,2000.8260,E,27.1,120.2,150918,0.0,E,A*3d
$GPVTG,120.2,T,0.0,M,27.1,N,50.1,K*4f
$GPGGA,150940.00,4610.8511,N,2000.8260,E,12,12,1.0,80.5,M,0.0,M,0.0,0000*46
$GPGSA,A,3,01,02,03,04,05,06,07,08,09,10,11,12,1.2,1.0,0.6*35
$GPGSV,3,1,12,01,45,045,50,02,45,045,50,03,45,045,50,04,45,045,50*7c
$GPGSV,3,2,12,05,45,045,50,06,45,045,50,07,45,045,50,08,45,045,50*77
$GPGSV,3,3,12,09,45,045,50,10,45,045,50,11,45,045,50,12,45,045,50*71
$GPRMC,150941.00,A,4610.8468,N,2000.8353,E,27.1,120.2,150918,0.0,E,A*32
$GPVTG,120.2,T,0.0,M,27.1,N,50.2,K*4c
